"stop_id","stop_code","stop_name","stop_desc","stop_lat","stop_lon","zone_id","stop_url","location_type","parent_station","stop_timezone","wheelchair_boarding"
"6","10","Fermata 10 - RUBIANA","RUBIANA - TESORIERA","45.07545","7.63915","0","http://www.gtt.to.it/cms/percorari/arrivi?option=com_gtt&view=palina&palina=10","","","Europe/Rome","1"
"7","100","Fermata 100 - TOSCANA","C. POTENZA N.102 / A","45.09583","7.65728","0","http://www.gtt.to.it/cms/percorari/arrivi?option=com_gtt&view=palina&palina=100","","","Europe/Rome","1"
"8","1000","Fermata 1000 - CIMABUE","V. RUBINO N.79","45.03807","7.61905","0","http://www.gtt.to.it/cms/percorari/arrivi?option=com_gtt&view=palina&palina=1000","","","Europe/Rome","1"
"8324","10001","Fermata 10001 - FIOCHETTO","AUTOSTAZIONE DORA","45.07641","7.68937","2","http://www.gtt.to.it/cms/percorari/arrivi?option=com_gtt&view=palina&palina=10001","","","Europe/Rome","2"
"9","1001","Fermata 1001 - INDUNO","C. TAZZOLI N.221","45.03665","7.61937","0","http://www.gtt.to.it/cms/percorari/arrivi?option=com_gtt&view=palina&palina=1001","","","Europe/Rome","1"
"10","1002","Fermata 1002 - INDUNO","C. TAZZOLI N.202","45.0369","7.61973","0","http://www.gtt.to.it/cms/percorari/arrivi?option=com_gtt&view=palina&palina=1002","","","Europe/Rome","1"
"11","1003","Fermata 1003 - CATTANEO OVEST","C. TAZZOLI / P.CATTANEO","45.03575","7.6234","0","http://www.gtt.to.it/cms/percorari/arrivi?option=com_gtt&view=palina&palina=1003","","","Europe/Rome","1"
"12","1004","Fermata 1004 - CATTANEO OVEST","C. TAZZOLI N.162","45.03609","7.62343","0","http://www.gtt.to.it/cms/percorari/arrivi?option=com_gtt&view=palina&palina=1004","","","Europe/Rome","1"
"13","1005","Fermata 1005 - CATTANEO EST","C. TAZZOLI DOPO P.CATTANEO","45.03512","7.62594","0","http://www.gtt.to.it/cms/percorari/arrivi?option=com_gtt&view=palina&palina=1005","","","Europe/Rome","2"
"14","1006","Fermata 1006 - CATTANEO EST","C. TAZZOLI / P.CATTANEO","45.03538","7.62603","0","http://www.gtt.to.it/cms/percorari/arrivi?option=com_gtt&view=palina&palina=1006","","","Europe/Rome","2"
"15","1007","Fermata 1007 - POMA","C. TAZZOLI FRONTE V. POMA","45.03372","7.62999","0","http://www.gtt.to.it/cms/percorari/arrivi?option=com_gtt&view=palina&palina=1007","","","Europe/Rome","2"
"16","1008","Fermata 1008 - POMA","C. TAZZOLI / V. POMA","45.034","7.63013","0","http://www.gtt.to.it/cms/percorari/arrivi?option=com_gtt&view=palina&palina=1008","","","Europe/Rome","2"
"17","1009","Fermata 1009 - SIRACUSA","C. TAZZOLI C.1","45.03266","7.63317","0","http://www.gtt.to.it/cms/percorari/arrivi?option=com_gtt&view=palina&palina=1009","","","Europe/Rome","2"
"18","101","Fermata 101 - VALDELLATORRE","VAL DELLA TORRE","45.09477","7.65646","0","http://www.gtt.to.it/cms/percorari/arrivi?option=com_gtt&view=palina&palina=101","","","Europe/Rome","2"
"19","1010","Fermata 1010 - SIRACUSA","C. TAZZOLI / C. SIRACUSA","45.03266","7.63413","0","http://www.gtt.to.it/cms/percorari/arrivi?option=com_gtt&view=palina&palina=1010","","","Europe/Rome","1"
"8768","10100","Fermata 10100 - STAZIONE STURA","PARK STURA","45.12005","7.71082","2","http://www.gtt.to.it/cms/percorari/arrivi?option=com_gtt&view=palina&palina=10100","","","Europe/Rome","2"
"20","1011","Fermata 1011 - TRAIANO","C. AGNELLI / C. TRAIANO","45.02662","7.63701","0","http://www.gtt.to.it/cms/percorari/arrivi?option=com_gtt&view=palina&palina=1011","","","Europe/Rome","1"
"21","1012","Fermata 1012 - CAIO MARIO NORD","C. AGNELLI / P.LE CAIO MARIO","45.02408","7.6352","0","http://www.gtt.to.it/cms/percorari/arrivi?option=com_gtt&view=palina&palina=1012","","","Europe/Rome","2"
"22","1013","Fermata 1013 - CAIO MARIO NORD","C. AGNELLI / P.LE CAIO MARIO","45.02517","7.63639","0","http://www.gtt.to.it/cms/percorari/arrivi?option=com_gtt&view=palina&palina=1013","","","Europe/Rome","2"
"23","1014","Fermata 1014 - CAIO MARIO EST","V. VIGLIANI N.6","45.02213","7.63657","0","http://www.gtt.to.it/cms/percorari/arrivi?option=com_gtt&view=palina&palina=1014","","","Europe/Rome","2"
"24","1015","Fermata 1015 - CAIO MARIO EST","V. VIGLIANI N.9","45.02253","7.63646","0","http://www.gtt.to.it/cms/percorari/arrivi?option=com_gtt&view=palina&palina=1015","","","Europe/Rome","1"
"25","1016","Fermata 1016 - CROCE","V. VIGLIANI FRONTE C. CROCE","45.01802","7.64476","0","http://www.gtt.to.it/cms/percorari/arrivi?option=com_gtt&view=palina&palina=1016","","","Europe/Rome","1"
"26","1017","Fermata 1017 - CROCE","V. VIGLIANI / C. CROCE","45.01841","7.64434","0","http://www.gtt.to.it/cms/percorari/arrivi?option=com_gtt&view=palina&palina=1017","","","Europe/Rome","1"
"27","1018","Fermata 1018 - ARTOM","V. VIGLIANI / V. ARTOM","45.01745","7.64742","0","http://www.gtt.to.it/cms/percorari/arrivi?option=com_gtt&view=palina&palina=1018","","","Europe/Rome","1"
"28","1019","Fermata 1019 - ARTOM","V. VIGLIANI DOPO V. PIO VII","45.01778","7.64735","0","http://www.gtt.to.it/cms/percorari/arrivi?option=com_gtt&view=palina&palina=1019","","","Europe/Rome","1"
"29","102","Fermata 102 - GROSSETO","STR. ALTESSANO / C. GROSSETO","45.10589","7.64538","0","http://www.gtt.to.it/cms/percorari/arrivi?option=com_gtt&view=palina&palina=102","","","Europe/Rome","1"
"30","1020","Fermata 1020 - SETTE COMUNI","V. VIGLIANI / V. MILLELIRE","45.01729","7.65178","0","http://www.gtt.to.it/cms/percorari/arrivi?option=com_gtt&view=palina&palina=1020","","","Europe/Rome","2"
"31","1021","Fermata 1021 - SETTE COMUNI","V. VIGLIANI / V. VII COMUNI","45.01757","7.65333","0","http://www.gtt.to.it/cms/percorari/arrivi?option=com_gtt&view=palina&palina=1021","","","Europe/Rome","2"
"32","1022","Fermata 1022 - PLINIO","V. VIGLIANI N.184","45.01725","7.65577","0","http://www.gtt.to.it/cms/percorari/arrivi?option=com_gtt&view=palina&palina=1022","","","Europe/Rome","2"
"33","1023","Fermata 1023 - BENGASI OVEST","BENGASI OVEST - M1","45.01757","7.66112","0","http://www.gtt.to.it/cms/percorari/arrivi?option=com_gtt&view=palina&palina=1023","","","Europe/Rome","1"
"34","1024","Fermata 1024 - BENGASI SUD","C. ROMA N.83 MONCALIERI","45.01568","7.66234","3","http://www.gtt.to.it/cms/percorari/arrivi?option=com_gtt&view=palina&palina=1024","","","Europe/Rome","1"
"35","1025","Fermata 1025 - TARTINI","V. BOTTICELLI N.80","45.09982","7.70801","0","http://www.gtt.to.it/cms/percorari/arrivi?option=com_gtt&view=palina&palina=1025","","","Europe/Rome","1"
"36","1026","Fermata 1026 - BENGASI SUD","C. ROMA / V. TIEPOLO MONCALIERI","45.01525","7.66284","3","http://www.gtt.to.it/cms/percorari/arrivi?option=com_gtt&view=palina&palina=1026","","","Europe/Rome","1"
"37","1027","Fermata 1027 - GORIZIA","C. ROMA N.51 MONCALIERI","45.01336","7.66419","3","http://www.gtt.to.it/cms/percorari/arrivi?option=com_gtt&view=palina&palina=1027","","","Europe/Rome","1"
"38","1028","Fermata 1028 - GORIZIA","C. ROMA N.58 MONCALIERI","45.01422","7.66372","3","http://www.gtt.to.it/cms/percorari/arrivi?option=com_gtt&view=palina&palina=1028","","","Europe/Rome","1"
"39","1029","Fermata 1029 - SAN MATTEO","C. ROMA N.45 MONCALIERI","45.0117","7.66558","3","http://www.gtt.to.it/cms/percorari/arrivi?option=com_gtt&view=palina&palina=1029","","","Europe/Rome","1"
"40","103","Fermata 103 - PIANEZZA","C. POTENZA / V. PIANEZZA","45.092","7.65458","0","http://www.gtt.to.it/cms/percorari/arrivi?option=com_gtt&view=palina&palina=103","","","Europe/Rome","2"
"41","1030","Fermata 1030 - SAN MATTEO","C. ROMA / V. MONCENISIO MONCALIERI","45.01188","7.66562","3","http://www.gtt.to.it/cms/percorari/arrivi?option=com_gtt&view=palina&palina=1030","","","Europe/Rome","1"
"42","1031","Fermata 1031 - GOBETTI","C. ROMA N.41 / 2 MONCALIERI","45.00996","7.66691","3","http://www.gtt.to.it/cms/percorari/arrivi?option=com_gtt&view=palina&palina=1031","","","Europe/Rome","1"
"43","1032","Fermata 1032 - GOBETTI","C. ROMA N.30 MONCALIERI","45.01021","7.66688","3","http://www.gtt.to.it/cms/percorari/arrivi?option=com_gtt&view=palina&palina=1032","","","Europe/Rome","1"
"44","1033","Fermata 1033 - VICO","C. ROMA N.35 BIS MONCALIERI","45.00892","7.66775","3","http://www.gtt.to.it/cms/percorari/arrivi?option=com_gtt&view=palina&palina=1033","","","Europe/Rome","1"
"45","1034","Fermata 1034 - VICO","C. ROMA FRONTE V. VICO MONCALIERI","45.00909","7.66779","3","http://www.gtt.to.it/cms/percorari/arrivi?option=com_gtt&view=palina&palina=1034","","","Europe/Rome","1"
"46","1035","Fermata 1035 - PESCHIERA","C. ROMA N.27 MONCALIERI","45.00671","7.66993","3","http://www.gtt.to.it/cms/percorari/arrivi?option=com_gtt&view=palina&palina=1035","","","Europe/Rome","1"
"47","1036","Fermata 1036 - PESCHIERA","C. ROMA N.20 MONCALIERI","45.00706","7.6698","3","http://www.gtt.to.it/cms/percorari/arrivi?option=com_gtt&view=palina&palina=1036","","","Europe/Rome","1"
"48","1037","Fermata 1037 - TRIESTE OVEST","C. ROMA N.19 MONCALIERI","45.00514","7.67229","3","http://www.gtt.to.it/cms/percorari/arrivi?option=com_gtt&view=palina&palina=1037","","","Europe/Rome","1"
"49","1038","Fermata 1038 - TRIESTE OVEST","C. ROMA FRONTE CIVICO 17 - MONCALIERI","45.00543","7.67232","3","http://www.gtt.to.it/cms/percorari/arrivi?option=com_gtt&view=palina&palina=1038","","","Europe/Rome","1"
"51","104","Fermata 104 - PIANEZZA","C. POTENZA DOPO V. PIANEZZA","45.09184","7.65459","0","http://www.gtt.to.it/cms/percorari/arrivi?option=com_gtt&view=palina&palina=104","","","Europe/Rome","2"
"52","1040","Fermata 1040 - PONTE CAVALIERI TEMPLARI","C. TRIESTE FRONTE V. SAN VINCENZO MONCALIERI","45.00216","7.67722","3","http://www.gtt.to.it/cms/percorari/arrivi?option=com_gtt&view=palina&palina=1040","","","Europe/Rome","1"
"54","1042","Fermata 1042 - CADUTI PER LA LIBERTÀ","CADUTI PER LA LIBERTA' - STAZIONE","44.99962","7.68005","3","http://www.gtt.to.it/cms/percorari/arrivi?option=com_gtt&view=palina&palina=1042","","","Europe/Rome","1"
"55","1043","Fermata 1043 - CATTANEO","V. CAVOUR N.34 BIS MONCALIERI","44.99812","7.68406","3","http://www.gtt.to.it/cms/percorari/arrivi?option=com_gtt&view=palina&palina=1043","","","Europe/Rome","2"
"56","1044","Fermata 1044 - CATTANEO","V. CAVOUR FRONTE N.36 MONCALIERI","44.99833","7.68423","3","http://www.gtt.to.it/cms/percorari/arrivi?option=com_gtt&view=palina&palina=1044","","","Europe/Rome","1"
"57","1045","Fermata 1045 - DELLACHÀ","DELLACHA' (OSP. SANTA CROCE)","44.99982","7.68817","3","http://www.gtt.to.it/cms/percorari/arrivi?option=com_gtt&view=palina&palina=1045","","","Europe/Rome","1"
"58","1046","Fermata 1046 - DELLACHÀ","DELLACHA' (OSP. SANTA CROCE)","45.00003","7.68835","3","http://www.gtt.to.it/cms/percorari/arrivi?option=com_gtt&view=palina&palina=1046","","","Europe/Rome","1"
"59","1047","Fermata 1047 - FAILLA","V. TENIVELLI / P.FAILLA MONCALIERI","45.00038","7.69403","3","http://www.gtt.to.it/cms/percorari/arrivi?option=com_gtt&view=palina&palina=1047","","","Europe/Rome","1"
"61","1049","Fermata 1049 - FAILLA","V. TENIVELLI FRONTE P.FAILLA MONCALIERI","45.00055","7.69327","3","http://www.gtt.to.it/cms/percorari/arrivi?option=com_gtt&view=palina&palina=1049","","","Europe/Rome","1"
"62","105","Fermata 105 - REGINA MARGHERITA","C. POTENZA / C. REGINA MARGHERITA","45.08819","7.65204","0","http://www.gtt.to.it/cms/percorari/arrivi?option=com_gtt&view=palina&palina=105","","","Europe/Rome","2"
"63","1050","Fermata 1050 - BUOZZI","STR. GENOVA N.64","44.9978","7.70245","3","http://www.gtt.to.it/cms/percorari/arrivi?option=com_gtt&view=palina&palina=1050","","","Europe/Rome","1"
"64","1051","Fermata 1051 - BUOZZI","STR. GENOVA N.145 MONCALIERI","44.99801","7.70228","3","http://www.gtt.to.it/cms/percorari/arrivi?option=com_gtt&view=palina&palina=1051","","","Europe/Rome","1"
"65","1052","Fermata 1052 - NASI","STR. GENOVA N.76 TER MONCALIERI","44.99633","7.70574","3","http://www.gtt.to.it/cms/percorari/arrivi?option=com_gtt&view=palina&palina=1052","","","Europe/Rome","2"
"66","1053","Fermata 1053 - NASI","STR. GENOVA / V. MONTANO MONCALIERI","44.99703","7.70453","3","http://www.gtt.to.it/cms/percorari/arrivi?option=com_gtt&view=palina&palina=1053","","","Europe/Rome","1"
"67","1054","Fermata 1054 - SETTEMBRINI","V. BOCCARDO N.9 MONCALIERI","44.99541","7.70991","3","http://www.gtt.to.it/cms/percorari/arrivi?option=com_gtt&view=palina&palina=1054","","","Europe/Rome","1"
"68","1055","Fermata 1055 - PONTE PO","PONTE FIUME PO DOPO V. PASTRENGO MONCALIERI","45.00059","7.67639","3","http://www.gtt.to.it/cms/percorari/arrivi?option=com_gtt&view=palina&palina=1055","","","Europe/Rome","1"
"70","1057","Fermata 1057 - TORINO","V. GIUSTI N.6 NICHELINO","44.9952","7.64765","3","http://www.gtt.to.it/cms/percorari/arrivi?option=com_gtt&view=palina&palina=1057","","","Europe/Rome","2"
"71","1058","Fermata 1058 - LOMBARDIA","C. TOSCANA / C. LOMBARDIA","45.09924","7.64879","0","http://www.gtt.to.it/cms/percorari/arrivi?option=com_gtt&view=palina&palina=1058","","","Europe/Rome","1"
"72","1059","Fermata 1059 - LOMBARDIA","C. TOSCANA / C. LOMBARDIA","45.09908","7.65036","0","http://www.gtt.to.it/cms/percorari/arrivi?option=com_gtt&view=palina&palina=1059","","","Europe/Rome","1"
"73","106","Fermata 106 - REGINA MARGHERITA","C. POTENZA DOPO C. REGINA MARGHERITA","45.08807","7.65206","0","http://www.gtt.to.it/cms/percorari/arrivi?option=com_gtt&view=palina&palina=106","","","Europe/Rome","2"
"74","1060","Fermata 1060 - BORSI","C. TOSCANA N.73","45.09802","7.65329","0","http://www.gtt.to.it/cms/percorari/arrivi?option=com_gtt&view=palina&palina=1060","","","Europe/Rome","1"
"75","1061","Fermata 1061 - BORSI","C. TOSCANA / V. BORSI","45.0981","7.65366","0","http://www.gtt.to.it/cms/percorari/arrivi?option=com_gtt&view=palina&palina=1061","","","Europe/Rome","1"
"76","1063","Fermata 1063 - XXV APRILE","V. STUPINIGI DOPO V. I.MAGGIO NICHELINO","45.00124","7.6409","3","http://www.gtt.to.it/cms/percorari/arrivi?option=com_gtt&view=palina&palina=1063","","","Europe/Rome","1"
"77","1064","Fermata 1064 - XXV APRILE","V. STUPINIGI FRONTE V. I.MAGGIO NICHELINO","45.00115","7.64016","3","http://www.gtt.to.it/cms/percorari/arrivi?option=com_gtt&view=palina&palina=1064","","","Europe/Rome","1"
"78","1065","Fermata 1065 - PALLAVICINO","V. XXV APRILE / STR. DEI CACCIATORI NICHELINO","45.00176","7.63393","3","http://www.gtt.to.it/cms/percorari/arrivi?option=com_gtt&view=palina&palina=1065","","","Europe/Rome","1"
"79","1066","Fermata 1066 - ISTITUTO MAXWELL","V. XXV APRILE FRONTE N.158 NICHELINO","45.0015","7.63586","3","http://www.gtt.to.it/cms/percorari/arrivi?option=com_gtt&view=palina&palina=1066","","","Europe/Rome","1"
"80","1067","Fermata 1067 - PRACAVALLO","PRAVACALLO","45.00496","7.62956","3","http://www.gtt.to.it/cms/percorari/arrivi?option=com_gtt&view=palina&palina=1067","","","Europe/Rome","2"
"81","1068","Fermata 1068 - PRACAVALLO","PRAVACALLO","45.00453","7.63005","3","http://www.gtt.to.it/cms/percorari/arrivi?option=com_gtt&view=palina&palina=1068","","","Europe/Rome","1"
"82","1069","Fermata 1069 - CESANA","STR. CACCIATORI FRONTE N.111 NICHELINO","45.00773","7.62296","3","http://www.gtt.to.it/cms/percorari/arrivi?option=com_gtt&view=palina&palina=1069","","","Europe/Rome","1"
"83","107","Fermata 107 - APPIO CLAUDIO","C. LECCE DOPO C. REGINA M.","45.08538","7.65008","0","http://www.gtt.to.it/cms/percorari/arrivi?option=com_gtt&view=palina&palina=107","","","Europe/Rome","1"
"84","1070","Fermata 1070 - CESANA","STR. DEI CACCIATORI N.111 NICHELINO","45.00754","7.6228","3","http://www.gtt.to.it/cms/percorari/arrivi?option=com_gtt&view=palina&palina=1070","","","Europe/Rome","1"
"85","1071","Fermata 1071 - POLIAMBULATORI","V. DEBOUCHE DOPO ROTONDA DELLE ALPI","45.00047","7.63207","3","http://www.gtt.to.it/cms/percorari/arrivi?option=com_gtt&view=palina&palina=1071","","","Europe/Rome","1"
"86","1072","Fermata 1072 - PRINCIPI D'ACAJA","PRINCIPI D'ACAJA - M1","45.07631","7.66419","0","http://www.gtt.to.it/cms/percorari/arrivi?option=com_gtt&view=palina&palina=1072","","","Europe/Rome","1"
"87","1073","Fermata 1073 - CASTELLO DI MIRAFIORI","C. UNIONE SOVIETICA DOPO STR. CASTELLO MIRAFIORI","45.0136","7.62533","0","http://www.gtt.to.it/cms/percorari/arrivi?option=com_gtt&view=palina&palina=1073","","","Europe/Rome","1"
"88","1074","Fermata 1074 - CASTELLO DI MIRAFIORI","C. UNIONE SOVIETICA / STR. DEL DROSSO","45.01356","7.62462","0","http://www.gtt.to.it/cms/percorari/arrivi?option=com_gtt&view=palina&palina=1074","","","Europe/Rome","1"
"89","1075","Fermata 1075 - FARINELLI","FARINELLI - CIRCOSCRIZIONE 2","45.01651","7.62863","0","http://www.gtt.to.it/cms/percorari/arrivi?option=com_gtt&view=palina&palina=1075","","","Europe/Rome","1"
"90","1076","Fermata 1076 - PLAVA","C. UNIONE SOVIETICA DOPO V. PLAVA","45.01587","7.62718","0","http://www.gtt.to.it/cms/percorari/arrivi?option=com_gtt&view=palina&palina=1076","","","Europe/Rome","1"
"91","1077","Fermata 1077 - BISCARETTI","C. UNIONE SOVIETICA / V. BARBERA","45.01997","7.63253","0","http://www.gtt.to.it/cms/percorari/arrivi?option=com_gtt&view=palina&palina=1077","","","Europe/Rome","1"
"92","1078","Fermata 1078 - BISCARETTI","C. UNIONE SOVIETICA DOPO V. BISCARETTI DI RUFFIA","45.01909","7.63079","0","http://www.gtt.to.it/cms/percorari/arrivi?option=com_gtt&view=palina&palina=1078","","","Europe/Rome","1"
"8895","10787","Fermata 10787 - SCAMBIO PESO","","45.10927","7.7758","0","http://www.gtt.to.it/cms/percorari/arrivi?option=com_gtt&view=palina&palina=10787","","","Europe/Rome","2"
"93","1079","Fermata 1079 - VIGLIANI","C. UNIONE SOVIETICA / V. IMPERIA","45.02186","7.63454","0","http://www.gtt.to.it/cms/percorari/arrivi?option=com_gtt&view=palina&palina=1079","","","Europe/Rome","1"
"94","10793","Fermata 10793 - SAN MAURO (SAMBUY)","Via Casale, 230","45.11522","7.78209","3","http://www.gtt.to.it/cms/percorari/arrivi?option=com_gtt&view=palina&palina=10793","","","Europe/Rome","2"
"95","10796","Fermata 10796 - CASTIGLIONE (MOLINO)","Via Castiglione (Molino)","45.1172","7.79447","3","http://www.gtt.to.it/cms/percorari/arrivi?option=com_gtt&view=palina&palina=10796","","","Europe/Rome","2"
"96","10799","Fermata 10799 - CASTIGLIONE (PEDAGGIO)","Via Torino","45.1173","7.80194","3","http://www.gtt.to.it/cms/percorari/arrivi?option=com_gtt&view=palina&palina=10799","","","Europe/Rome","2"
"97","108","Fermata 108 - APPIO CLAUDIO","C. LECCE N.122","45.08563","7.65046","0","http://www.gtt.to.it/cms/percorari/arrivi?option=com_gtt&view=palina&palina=108","","","Europe/Rome","1"
"98","1080","Fermata 1080 - SETTEMBRINI","C. UNIONE SOVIETICA DOPO P.LE C. MARIO","45.02269","7.63406","0","http://www.gtt.to.it/cms/percorari/arrivi?option=com_gtt&view=palina&palina=1080","","","Europe/Rome","1"
"99","10802","Fermata 10802 - CASTIGLIONE (FORNACE)","Via Torino, 92","45.11915","7.80887","3","http://www.gtt.to.it/cms/percorari/arrivi?option=com_gtt&view=palina&palina=10802","","","Europe/Rome","2"
"100","10805","Fermata 10805 - CASTIGLIONE (REZZA)","Via Torino, 187","45.12159","7.81446","3","http://www.gtt.to.it/cms/percorari/arrivi?option=com_gtt&view=palina&palina=10805","","","Europe/Rome","2"
"101","10808","Fermata 10808 - CASTIGLIONE (SANT' EUFEMIA)","CASTIGLIONE (SANT'EUFEMIA)","45.12485","7.82021","3","http://www.gtt.to.it/cms/percorari/arrivi?option=com_gtt&view=palina&palina=10808","","","Europe/Rome","2"
"102","1081","Fermata 1081 - PAVESE","C. UNIONE SOVIETICA / V. PAVESE","45.01823","7.63053","0","http://www.gtt.to.it/cms/percorari/arrivi?option=com_gtt&view=palina&palina=1081","","","Europe/Rome","1"
"103","10811","Fermata 10811 - GASSINO (CIRCONVALLAZIONE / DIAZ)","GASSINO (CIRCONVALLAZIONE/DIAZ)","45.12766","7.82226","3","http://www.gtt.to.it/cms/percorari/arrivi?option=com_gtt&view=palina&palina=10811","","","Europe/Rome","2"
"104","10814","Fermata 10814 - GASSINO (CENTRO)","Via Regione Fiore, 2","45.13049","7.82528","5","http://www.gtt.to.it/cms/percorari/arrivi?option=com_gtt&view=palina&palina=10814","","","Europe/Rome","2"
"105","1082","Fermata 1082 - PRINCIPI D'ACAJA","PRINCIPI D'ACAJA - M1","45.07643","7.66405","0","http://www.gtt.to.it/cms/percorari/arrivi?option=com_gtt&view=palina&palina=1082","","","Europe/Rome","1"
"106","1083","Fermata 1083 - CAIO MARIO CAP","CAIO MARIO","45.02427","7.63623","2","http://www.gtt.to.it/cms/percorari/arrivi?option=com_gtt&view=palina&palina=1083","","","Europe/Rome","1"
"107","1084","Fermata 1084 - STUPINIGI","V.LE TORINO N.10 NICHELINO","44.99824","7.60752","3","http://www.gtt.to.it/cms/percorari/arrivi?option=com_gtt&view=palina&palina=1084","","","Europe/Rome","2"
"108","1085","Fermata 1085 - TORINO","V. BORGARETTO DOPO V. TORINO NICHELINO","45.00127","7.61","3","http://www.gtt.to.it/cms/percorari/arrivi?option=com_gtt&view=palina&palina=1085","","","Europe/Rome","2"
"109","1088","Fermata 1088 - DON MINZONI","V. DON MINZONI N.10 BORGARETTO","45.00381","7.60543","3","http://www.gtt.to.it/cms/percorari/arrivi?option=com_gtt&view=palina&palina=1088","","","Europe/Rome","1"
"110","1089","Fermata 1089 - GORIZIA","V.LE GIOVANNI XXIII / V. SANGONE BEINASCO","45.00578","7.60322","3","http://www.gtt.to.it/cms/percorari/arrivi?option=com_gtt&view=palina&palina=1089","","","Europe/Rome","1"
"111","109","Fermata 109 - LESSONA","C. LECCE DOPO V. LESSONA","45.08274","7.64836","0","http://www.gtt.to.it/cms/percorari/arrivi?option=com_gtt&view=palina&palina=109","","","Europe/Rome","1"
"112","1090","Fermata 1090 - MARTIRI DELLA LIBERTÀ","MARTIRI DELLA LIBERTA'","45.00572","7.60423","3","http://www.gtt.to.it/cms/percorari/arrivi?option=com_gtt&view=palina&palina=1090","","","Europe/Rome","1"
"113","1092","Fermata 1092 - RONDÒ BERNARDO","RONDO' BERNARDO","45.0084","7.60622","3","http://www.gtt.to.it/cms/percorari/arrivi?option=com_gtt&view=palina&palina=1092","","","Europe/Rome","2"
"114","1093","Fermata 1093 - LARGO DELLE ALPI","V. DEBOUCHE / V. XXV APRILE NICHELINO","45.00093","7.63237","3","http://www.gtt.to.it/cms/percorari/arrivi?option=com_gtt&view=palina&palina=1093","","","Europe/Rome","2"
"115","1094","Fermata 1094 - GORIZIA EST","V. R.BERNARDO N.15 BEINASCO","45.00887","7.60697","3","http://www.gtt.to.it/cms/percorari/arrivi?option=com_gtt&view=palina&palina=1094","","","Europe/Rome","2"
"116","1095","Fermata 1095 - VIGILI DEL FUOCO","C. REGINA MARGHERITA 330/B VIGILI DEL FUOCO","45.08855","7.64885","0","http://www.gtt.to.it/cms/percorari/arrivi?option=com_gtt&view=palina&palina=1095","","","Europe/Rome","1"
"117","1096","Fermata 1096 - RONDÒ BERNARDO N.16","RONDO' BERNARDO N.16","45.00721","7.61092","3","http://www.gtt.to.it/cms/percorari/arrivi?option=com_gtt&view=palina&palina=1096","","","Europe/Rome","1"
"118","1097","Fermata 1097 - STUPINIGI","V. XXV APRILE / V. STUPINIGI NICHELINO","45.00165","7.64016","3","http://www.gtt.to.it/cms/percorari/arrivi?option=com_gtt&view=palina&palina=1097","","","Europe/Rome","1"
"119","1098","Fermata 1098 - TORINO","V. R.BERNARDO N.1 NICHELINO","45.00585","7.61436","3","http://www.gtt.to.it/cms/percorari/arrivi?option=com_gtt&view=palina&palina=1098","","","Europe/Rome","2"
"120","1099","Fermata 1099 - RONDÒ BERNARDO","RONDO' BERNARDO","45.00554","7.61592","3","http://www.gtt.to.it/cms/percorari/arrivi?option=com_gtt&view=palina&palina=1099","","","Europe/Rome","2"
"121","110","Fermata 110 - LESSONA","C. LECCE DOPO V. LESSONA","45.08343","7.64899","0","http://www.gtt.to.it/cms/percorari/arrivi?option=com_gtt&view=palina&palina=110","","","Europe/Rome","1"
"122","1100","Fermata 1100 - SANGONE","C. UNIONE SOVIETICA DOPO PONTE SANGONE","45.00987","7.62118","0","http://www.gtt.to.it/cms/percorari/arrivi?option=com_gtt&view=palina&palina=1100","","","Europe/Rome","1"
"123","1101","Fermata 1101 - SANGONE","C. UNIONE SOVIETICA / PONTE SANGONE","45.01016","7.62086","0","http://www.gtt.to.it/cms/percorari/arrivi?option=com_gtt&view=palina&palina=1101","","","Europe/Rome","1"
"124","1102","Fermata 1102 - CAIO MARIO","C. UNIONE SOVIETICA / V. NICHELINO","45.02419","7.63696","0","http://www.gtt.to.it/cms/percorari/arrivi?option=com_gtt&view=palina&palina=1102","","","Europe/Rome","1"
"125","1103","Fermata 1103 - CAIO MARIO","C. UNIONE SOVIETICA FRONTE V. NICHELINO","45.02355","7.63619","0","http://www.gtt.to.it/cms/percorari/arrivi?option=com_gtt&view=palina&palina=1103","","","Europe/Rome","1"
"126","1104","Fermata 1104 - BRAMANTE","C. UNIONE SOVIETICA / C. BRAMANTE","45.04642","7.66186","0","http://www.gtt.to.it/cms/percorari/arrivi?option=com_gtt&view=palina&palina=1104","","","Europe/Rome","1"
"127","1105","Fermata 1105 - LEPANTO","C. TURATI / C. LEPANTO","45.04701","7.66234","0","http://www.gtt.to.it/cms/percorari/arrivi?option=com_gtt&view=palina&palina=1105","","","Europe/Rome","1"
"128","1106","Fermata 1106 - OSPEDALE MAURIZIANO","C. TURATI / C. DANTE","45.04958","7.66541","0","http://www.gtt.to.it/cms/percorari/arrivi?option=com_gtt&view=palina&palina=1106","","","Europe/Rome","1"
"129","1107","Fermata 1107 - MARONCELLI","V. G. FERRARIS PRIMA DI V. MARONCELLI","45.13847","7.77754","3","http://www.gtt.to.it/cms/percorari/arrivi?option=com_gtt&view=palina&palina=1107","","","Europe/Rome","1"
"130","1108","Fermata 1108 - MAGELLANO","C. TURATI DOPO V. SAVONAROLA","45.05154","7.66762","0","http://www.gtt.to.it/cms/percorari/arrivi?option=com_gtt&view=palina&palina=1108","","","Europe/Rome","1"
"131","1109","Fermata 1109 - LEVI","V. G. FERRARIS PRIMA DI V. LEVI","45.14071","7.77894","3","http://www.gtt.to.it/cms/percorari/arrivi?option=com_gtt&view=palina&palina=1109","","","Europe/Rome","1"
"133","1110","Fermata 1110 - VESPUCCI","VESPUCCI - DIREZIONE GTT","45.05274","7.66894","0","http://www.gtt.to.it/cms/percorari/arrivi?option=com_gtt&view=palina&palina=1110","","","Europe/Rome","1"
"134","1111","Fermata 1111 - PERVINCHE","V. DELLE PERVINCHE DOPO V.LE DEI MUGHETTI","45.10348","7.63609","0","http://www.gtt.to.it/cms/percorari/arrivi?option=com_gtt&view=palina&palina=1111","","","Europe/Rome","1"
"135","1112","Fermata 1112 - SOMMEILLER","V. SACCHI DOPO C. SOMMEILLER","45.0557","7.67225","0","http://www.gtt.to.it/cms/percorari/arrivi?option=com_gtt&view=palina&palina=1112","","","Europe/Rome","1"
"136","1113","Fermata 1113 - PERVINCHE NORD","V. DELLE PERVINCHE FRONTE N.15","45.10597","7.63586","0","http://www.gtt.to.it/cms/percorari/arrivi?option=com_gtt&view=palina&palina=1113","","","Europe/Rome","1"
"137","1114","Fermata 1114 - PASTRENGO","V. SACCHI FRONTE V. PASTRENGO","45.05833","7.67432","0","http://www.gtt.to.it/cms/percorari/arrivi?option=com_gtt&view=palina&palina=1114","","","Europe/Rome","1"
"138","1115","Fermata 1115 - PRIMULE NORD","V. DELLE PERVINCHE N.75","45.106","7.62564","0","http://www.gtt.to.it/cms/percorari/arrivi?option=com_gtt&view=palina&palina=1115","","","Europe/Rome","1"
"139","1116","Fermata 1116 - STAZIONE NICHELINO","V. TORINO N.209 NICHELINO","44.991","7.64227","3","http://www.gtt.to.it/cms/percorari/arrivi?option=com_gtt&view=palina&palina=1116","","","Europe/Rome","1"
"140","1117","Fermata 1117 - LAGRANGE","V. XXV APRILE DOPO V. PONCHIELLI NICHELINO","45.00177","7.64533","3","http://www.gtt.to.it/cms/percorari/arrivi?option=com_gtt&view=palina&palina=1117","","","Europe/Rome","1"
"141","1118","Fermata 1118 - BOLZANO CAP","BOLZANO - PORTA SUSA M1 - STAZIONE","45.07335","7.66751","2","http://www.gtt.to.it/cms/percorari/arrivi?option=com_gtt&view=palina&palina=1118","","","Europe/Rome","1"
"142","1119","Fermata 1119 - CAIO MARIO CAP","CAIO MARIO","45.02446","7.63614","2","http://www.gtt.to.it/cms/percorari/arrivi?option=com_gtt&view=palina&palina=1119","","","Europe/Rome","1"
"144","1120","Fermata 1120 - MARSIGLI CAP","MARSIGLI","45.06819","7.62757","2","http://www.gtt.to.it/cms/percorari/arrivi?option=com_gtt&view=palina&palina=1120","","","Europe/Rome","1"
"145","1121","Fermata 1121 - RIETI","STR. DELLA PRONDA / V. RIETI GRUGLIASCO","45.06505","7.60885","3","http://www.gtt.to.it/cms/percorari/arrivi?option=com_gtt&view=palina&palina=1121","","","Europe/Rome","1"
"146","1122","Fermata 1122 - BRUNELLESCHI","V. MONTE ORTIGARA / C. BRUNELLESCHI","45.06923","7.62456","0","http://www.gtt.to.it/cms/percorari/arrivi?option=com_gtt&view=palina&palina=1122","","","Europe/Rome","1"
"147","1123","Fermata 1123 - CHAMBERY","C. BRUNELLESCHI / V. CHAMBERY","45.06981","7.62319","0","http://www.gtt.to.it/cms/percorari/arrivi?option=com_gtt&view=palina&palina=1123","","","Europe/Rome","1"
"148","1124","Fermata 1124 - LECCE","C. APPIO CLAUDIO DOPO C. LECCE","45.08467","7.65038","0","http://www.gtt.to.it/cms/percorari/arrivi?option=com_gtt&view=palina&palina=1124","","","Europe/Rome","1"
"149","1125","Fermata 1125 - SACRARIO DEL MARTINETTO","C. APPIO CLAUDIO DOPO C. SVIZZERA","45.08398","7.65333","0","http://www.gtt.to.it/cms/percorari/arrivi?option=com_gtt&view=palina&palina=1125","","","Europe/Rome","1"
"150","1126","Fermata 1126 - SACRARIO DEL MARTINETTO","C. APPIO CLAUDIO / C. SVIZZERA","45.08421","7.65314","0","http://www.gtt.to.it/cms/percorari/arrivi?option=com_gtt&view=palina&palina=1126","","","Europe/Rome","1"
"151","1127","Fermata 1127 - PERVINCHE","V. DELLE PERVINCHE / V.LE DEI MUGHETTI","45.10338","7.63554","0","http://www.gtt.to.it/cms/percorari/arrivi?option=com_gtt&view=palina&palina=1127","","","Europe/Rome","1"
"152","1128","Fermata 1128 - GIAMBONE","C. CORSICA / C. GIAMBONE","45.0308","7.65182","0","http://www.gtt.to.it/cms/percorari/arrivi?option=com_gtt&view=palina&palina=1128","","","Europe/Rome","1"
"154","1130","Fermata 1130 - RE UMBERTO","C. ROSSELLI N.33","45.05142","7.66249","0","http://www.gtt.to.it/cms/percorari/arrivi?option=com_gtt&view=palina&palina=1130","","","Europe/Rome","1"
"155","11303","Fermata 11303 - RIVALTA (FIAT RIVALTA-CANC. 8)","RIVALTA (FIAT RIVALTA C.8)","44.99719","7.50704","3","http://www.gtt.to.it/cms/percorari/arrivi?option=com_gtt&view=palina&palina=11303","","","Europe/Rome","2"
"156","11306","Fermata 11306 - RIVALTA (FIAT RIVALTA-CANC. 5)","RIVALTA (FIAT RIVALTA C.5)","44.99799","7.51045","3","http://www.gtt.to.it/cms/percorari/arrivi?option=com_gtt&view=palina&palina=11306","","","Europe/Rome","2"
"157","1131","Fermata 1131 - OSPEDALE MAURIZIANO","C. ROSSELLI DOPO C. TURATI","45.05057","7.66509","0","http://www.gtt.to.it/cms/percorari/arrivi?option=com_gtt&view=palina&palina=1131","","","Europe/Rome","1"
"158","1132","Fermata 1132 - OSPEDALE MAURIZIANO","C. ROSSELLI / C. TURATI","45.05049","7.66474","0","http://www.gtt.to.it/cms/percorari/arrivi?option=com_gtt&view=palina&palina=1132","","","Europe/Rome","1"
"159","1133","Fermata 1133 - ROCCABRUNA","ROCCABRUNA - SEDE ATC","45.04915","7.66723","0","http://www.gtt.to.it/cms/percorari/arrivi?option=com_gtt&view=palina&palina=1133","","","Europe/Rome","1"
"160","1134","Fermata 1134 - ROCCABRUNA","ROCCABRUNA - SEDE ATC","45.04931","7.6671","0","http://www.gtt.to.it/cms/percorari/arrivi?option=com_gtt&view=palina&palina=1134","","","Europe/Rome","1"
"161","1135","Fermata 1135 - NIZZA","NIZZA - DANTE M1","45.04754","7.67232","0","http://www.gtt.to.it/cms/percorari/arrivi?option=com_gtt&view=palina&palina=1135","","","Europe/Rome","1"
"162","1136","Fermata 1136 - NIZZA","NIZZA - DANTE M1","45.04767","7.67238","0","http://www.gtt.to.it/cms/percorari/arrivi?option=com_gtt&view=palina&palina=1136","","","Europe/Rome","1"
"163","1137","Fermata 1137 - MADAMA CRISTINA","C. DANTE / V. M.CRISTINA","45.04704","7.67484","0","http://www.gtt.to.it/cms/percorari/arrivi?option=com_gtt&view=palina&palina=1137","","","Europe/Rome","1"
"164","1139","Fermata 1139 - GIURIA","C. DANTE / C. D'AZEGLIO","45.04651","7.67774","0","http://www.gtt.to.it/cms/percorari/arrivi?option=com_gtt&view=palina&palina=1139","","","Europe/Rome","1"
"166","1140","Fermata 1140 - GIURIA","C. DANTE DOPO C. D'AZEGLIO","45.04676","7.67693","0","http://www.gtt.to.it/cms/percorari/arrivi?option=com_gtt&view=palina&palina=1140","","","Europe/Rome","1"
"167","1141","Fermata 1141 - ALTA DI MONGRENO N.16","STR. ALTA DI MONGRENO FRONTE N.16","45.06349","7.756","0","http://www.gtt.to.it/cms/percorari/arrivi?option=com_gtt&view=palina&palina=1141","","","Europe/Rome","2"
"168","1142","Fermata 1142 - MORANDI","V. FARINELLI FRONTE V. TOGLIATTI","45.01504","7.63222","0","http://www.gtt.to.it/cms/percorari/arrivi?option=com_gtt&view=palina&palina=1142","","","Europe/Rome","1"
"170","1144","Fermata 1144 - FABRIZI","C. TASSONI - V. PEYRON","45.0801","7.65638","0","http://www.gtt.to.it/cms/percorari/arrivi?option=com_gtt&view=palina&palina=1144","","","Europe/Rome","2"
"171","1145","Fermata 1145 - OSPEDALE SAN LUIGI CAP","OSPEDALE SAN LUIGI","45.02841","7.55942","5","http://www.gtt.to.it/cms/percorari/arrivi?option=com_gtt&view=palina&palina=1145","","","Europe/Rome","1"
"172","1146","Fermata 1146 - SECRETO","C. CINCINNATO FRONTE N.222","45.10369","7.65094","0","http://www.gtt.to.it/cms/percorari/arrivi?option=com_gtt&view=palina&palina=1146","","","Europe/Rome","1"
"173","1147","Fermata 1147 - SANGONE","V. BRUERE N.9 RIVOLI","45.0731","7.54006","3","http://www.gtt.to.it/cms/percorari/arrivi?option=com_gtt&view=palina&palina=1147","","","Europe/Rome","1"
"174","1148","Fermata 1148 - MONDOVI'","V. BRUERE N.92 RIVOLI","45.07801","7.54243","3","http://www.gtt.to.it/cms/percorari/arrivi?option=com_gtt&view=palina&palina=1148","","","Europe/Rome","1"
"175","1149","Fermata 1149 - ARONA","V. BRUERE N.302 RIVOLI","45.08689","7.54942","3","http://www.gtt.to.it/cms/percorari/arrivi?option=com_gtt&view=palina&palina=1149","","","Europe/Rome","1"
"177","1150","Fermata 1150 - CASTELLO DEL DROSSO","STR. DEL DROSSO FRONTE N.31","45.01936","7.59504","3","http://www.gtt.to.it/cms/percorari/arrivi?option=com_gtt&view=palina&palina=1150","","","Europe/Rome","2"
"178","1151","Fermata 1151 - CASTELLO DEL DROSSO","STR. DEL DROSSO N.31 BEINASCO","45.01931","7.59623","3","http://www.gtt.to.it/cms/percorari/arrivi?option=com_gtt&view=palina&palina=1151","","","Europe/Rome","2"
"179","1152","Fermata 1152 - ANSELMETTI","STR. DEL DROSSO N.184","45.01782","7.6045","0","http://www.gtt.to.it/cms/percorari/arrivi?option=com_gtt&view=palina&palina=1152","","","Europe/Rome","1"
"180","1153","Fermata 1153 - ANSELMETTI","STR. DEL DROSSO INT.184","45.01784","7.60615","0","http://www.gtt.to.it/cms/percorari/arrivi?option=com_gtt&view=palina&palina=1153","","","Europe/Rome","2"
"181","1154","Fermata 1154 - DROSSO","V. NEGARVILLE N.37","45.0172","7.6102","0","http://www.gtt.to.it/cms/percorari/arrivi?option=com_gtt&view=palina&palina=1154","","","Europe/Rome","1"
"182","1155","Fermata 1155 - DROSSO","V. NEGARVILLE / STR. DEL DROSSO","45.01709","7.60995","0","http://www.gtt.to.it/cms/percorari/arrivi?option=com_gtt&view=palina&palina=1155","","","Europe/Rome","1"
"183","1157","Fermata 1157 - ROVEDA","V. NEGARVILLE N.23","45.01901","7.61127","0","http://www.gtt.to.it/cms/percorari/arrivi?option=com_gtt&view=palina&palina=1157","","","Europe/Rome","2"
"184","1158","Fermata 1158 - NEGARVILLE CAP","NEGARVILLE","45.02045","7.61226","2","http://www.gtt.to.it/cms/percorari/arrivi?option=com_gtt&view=palina&palina=1158","","","Europe/Rome","1"
"185","1159","Fermata 1159 - NEGARVILLE EST","V. PLAVA N.113","45.02025","7.61532","0","http://www.gtt.to.it/cms/percorari/arrivi?option=com_gtt&view=palina&palina=1159","","","Europe/Rome","2"
"186","116","Fermata 116 - RIVOLI SUD","C. TRAPANI DOPO P. RIVOLI","45.07497","7.64268","0","http://www.gtt.to.it/cms/percorari/arrivi?option=com_gtt&view=palina&palina=116","","","Europe/Rome","1"
"187","1160","Fermata 1160 - JONA","V. PLAVA FRONTE N.119","45.02064","7.61487","0","http://www.gtt.to.it/cms/percorari/arrivi?option=com_gtt&view=palina&palina=1160","","","Europe/Rome","1"
"188","1161","Fermata 1161 - FACCIOLI","V. PLAVA DOPO V. FACCIOLI","45.01931","7.61832","0","http://www.gtt.to.it/cms/percorari/arrivi?option=com_gtt&view=palina&palina=1161","","","Europe/Rome","2"
"189","1162","Fermata 1162 - FACCIOLI","V. PLAVA / V. FACCIOLI","45.01909","7.61831","0","http://www.gtt.to.it/cms/percorari/arrivi?option=com_gtt&view=palina&palina=1162","","","Europe/Rome","2"
"190","1163","Fermata 1163 - VALLARSA","V. PLAVA DOPO V. SAN MICHELE DEL CARSO","45.01705","7.62443","0","http://www.gtt.to.it/cms/percorari/arrivi?option=com_gtt&view=palina&palina=1163","","","Europe/Rome","1"
"191","1164","Fermata 1164 - VALLARSA","V. PLAVA / V. VALLARSA","45.01766","7.623","0","http://www.gtt.to.it/cms/percorari/arrivi?option=com_gtt&view=palina&palina=1164","","","Europe/Rome","1"
"192","1165","Fermata 1165 - UNIONE SOVIETICA","V. FARINELLI DOPO C. UNIONE SOVIETICA","45.01584","7.62859","0","http://www.gtt.to.it/cms/percorari/arrivi?option=com_gtt&view=palina&palina=1165","","","Europe/Rome","1"
"193","1166","Fermata 1166 - OSPEDALE VALLETTA","V. FARINELLI FRONTE V. COGGIOLA","45.01564","7.63044","0","http://www.gtt.to.it/cms/percorari/arrivi?option=com_gtt&view=palina&palina=1166","","","Europe/Rome","1"
"194","1167","Fermata 1167 - TORINO","V. LUPO / C. TORINO GRUGLIASCO","45.065","7.57879","3","http://www.gtt.to.it/cms/percorari/arrivi?option=com_gtt&view=palina&palina=1167","","","Europe/Rome","1"
"195","1168","Fermata 1168 - TORINO","V. LUPO / V. ECHIROLLES GRUGLIASCO","45.06485","7.57863","3","http://www.gtt.to.it/cms/percorari/arrivi?option=com_gtt&view=palina&palina=1168","","","Europe/Rome","1"
"196","1169","Fermata 1169 - PORTOFINO","V. BARBERA N.18","45.01903","7.63359","0","http://www.gtt.to.it/cms/percorari/arrivi?option=com_gtt&view=palina&palina=1169","","","Europe/Rome","1"
"197","117","Fermata 117 - RIVOLI SUD","RIVOLI SUD - M1","45.07489","7.64312","0","http://www.gtt.to.it/cms/percorari/arrivi?option=com_gtt&view=palina&palina=117","","","Europe/Rome","1"
"198","1170","Fermata 1170 - PORTOFINO","V. BARBERA N.13","45.01923","7.63375","0","http://www.gtt.to.it/cms/percorari/arrivi?option=com_gtt&view=palina&palina=1170","","","Europe/Rome","1"
"199","1171","Fermata 1171 - ISLER","V. BARBERA / STR. DELLE CACCE","45.01801","7.63766","0","http://www.gtt.to.it/cms/percorari/arrivi?option=com_gtt&view=palina&palina=1171","","","Europe/Rome","1"
"200","1172","Fermata 1172 - ISLER","V. BARBERA DOPO STR. DELLE CACCE","45.01819","7.63783","0","http://www.gtt.to.it/cms/percorari/arrivi?option=com_gtt&view=palina&palina=1172","","","Europe/Rome","1"
"201","1173","Fermata 1173 - VERGA","STR. DELLE CACCE / STR. CASTELLO DI MIRAFIORI","45.01112","7.63615","0","http://www.gtt.to.it/cms/percorari/arrivi?option=com_gtt&view=palina&palina=1173","","","Europe/Rome","2"
"202","1174","Fermata 1174 - VERGA","STR. DELLE CACCE FRONTE V. VERGA","45.01186","7.63675","0","http://www.gtt.to.it/cms/percorari/arrivi?option=com_gtt&view=palina&palina=1174","","","Europe/Rome","1"
"203","1175","Fermata 1175 - PARCO COLONNETTI","PARCO COLONNETTI - MAUSOLEO BELA ROSIN","45.00999","7.64154","0","http://www.gtt.to.it/cms/percorari/arrivi?option=com_gtt&view=palina&palina=1175","","","Europe/Rome","1"
"204","1176","Fermata 1176 - PARCO COLONNETTI","PARCO COLONNETTI - MAUSOLEO BELA ROSIN","45.01024","7.64051","0","http://www.gtt.to.it/cms/percorari/arrivi?option=com_gtt&view=palina&palina=1176","","","Europe/Rome","2"
"205","1177","Fermata 1177 - SAPRI","V. MONASTIR N.80","45.01161","7.65294","0","http://www.gtt.to.it/cms/percorari/arrivi?option=com_gtt&view=palina&palina=1177","","","Europe/Rome","1"
"206","1178","Fermata 1178 - PISACANE","V. MONASTIR N.35","45.01426","7.65424","0","http://www.gtt.to.it/cms/percorari/arrivi?option=com_gtt&view=palina&palina=1178","","","Europe/Rome","1"
"207","1179","Fermata 1179 - PISACANE","V. MONASTIR / V. PISACANE","45.01388","7.65394","0","http://www.gtt.to.it/cms/percorari/arrivi?option=com_gtt&view=palina&palina=1179","","","Europe/Rome","1"
"208","118","Fermata 118 - BARDONECCHIA","C. TRAPANI DOPO V. BARDONECCHIA","45.07207","7.64076","0","http://www.gtt.to.it/cms/percorari/arrivi?option=com_gtt&view=palina&palina=118","","","Europe/Rome","2"
"209","1180","Fermata 1180 - LA MANTA C.23","V. LA MANTA C.23","45.02797","7.61154","0","http://www.gtt.to.it/cms/percorari/arrivi?option=com_gtt&view=palina&palina=1180","","","Europe/Rome","2"
"210","1181","Fermata 1181 - SOMALIA","V. CANDIOLO / V. SOMALIA","45.01404","7.65773","3","http://www.gtt.to.it/cms/percorari/arrivi?option=com_gtt&view=palina&palina=1181","","","Europe/Rome","1"
"211","1182","Fermata 1182 - MARONCELLI CAP","MARONCELLI","45.0181","7.66282","2","http://www.gtt.to.it/cms/percorari/arrivi?option=com_gtt&view=palina&palina=1182","","","Europe/Rome","2"
"212","1183","Fermata 1183 - AUTOSTRADE NORD","C. VERCELLI N.483","45.11885","7.70993","0","http://www.gtt.to.it/cms/percorari/arrivi?option=com_gtt&view=palina&palina=1183","","","Europe/Rome","1"
"213","1184","Fermata 1184 - CANDIOLO CAP","CANDIOLO","44.95781","7.59383","5","http://www.gtt.to.it/cms/percorari/arrivi?option=com_gtt&view=palina&palina=1184","","","Europe/Rome","1"
"214","1185","Fermata 1185 - PAVESE","C. UNIONE SOVIETICA FRONTE V. PAVESE","45.01773","7.62929","0","http://www.gtt.to.it/cms/percorari/arrivi?option=com_gtt&view=palina&palina=1185","","","Europe/Rome","1"
"215","1186","Fermata 1186 - IVREA","C. VERCELLI N.415","45.11722","7.70442","0","http://www.gtt.to.it/cms/percorari/arrivi?option=com_gtt&view=palina&palina=1186","","","Europe/Rome","1"
"216","1187","Fermata 1187 - IVREA","C. VERCELLI / V. IVREA","45.11705","7.70472","0","http://www.gtt.to.it/cms/percorari/arrivi?option=com_gtt&view=palina&palina=1187","","","Europe/Rome","1"
"217","1188","Fermata 1188 - ANTIOCA","C. VERCELLI N.397","45.11634","7.70125","0","http://www.gtt.to.it/cms/percorari/arrivi?option=com_gtt&view=palina&palina=1188","","","Europe/Rome","2"
"218","1189","Fermata 1189 - ANTIOCA","C. VERCELLI N.354","45.11622","7.70176","0","http://www.gtt.to.it/cms/percorari/arrivi?option=com_gtt&view=palina&palina=1189","","","Europe/Rome","1"
"219","119","Fermata 119 - BARDONECCHIA","C. TRAPANI DOPO V. BARDONECCHIA","45.07221","7.64107","0","http://www.gtt.to.it/cms/percorari/arrivi?option=com_gtt&view=palina&palina=119","","","Europe/Rome","1"
"220","1190","Fermata 1190 - BELGIOIOSO","C. VERCELLI N.297","45.11073","7.69775","0","http://www.gtt.to.it/cms/percorari/arrivi?option=com_gtt&view=palina&palina=1190","","","Europe/Rome","2"
"221","1191","Fermata 1191 - BELGIOIOSO","C. VERCELLI / V. BELGIOIOSO","45.1114","7.6982","0","http://www.gtt.to.it/cms/percorari/arrivi?option=com_gtt&view=palina&palina=1191","","","Europe/Rome","1"
"222","1192","Fermata 1192 - CENA","C. VERCELLI N.279/A","45.10887","7.69724","0","http://www.gtt.to.it/cms/percorari/arrivi?option=com_gtt&view=palina&palina=1192","","","Europe/Rome","1"
"223","1193","Fermata 1193 - CENA","C. VERCELLI / V. CENA","45.10913","7.69767","0","http://www.gtt.to.it/cms/percorari/arrivi?option=com_gtt&view=palina&palina=1193","","","Europe/Rome","2"
"224","1194","Fermata 1194 - REISS ROMOLI","C. VERCELLI DOPO V. REISS ROMOLI","45.10586","7.69636","0","http://www.gtt.to.it/cms/percorari/arrivi?option=com_gtt&view=palina&palina=1194","","","Europe/Rome","1"
"225","1195","Fermata 1195 - OXILIA","C. VERCELLI / V. OXILIA","45.10588","7.69669","0","http://www.gtt.to.it/cms/percorari/arrivi?option=com_gtt&view=palina&palina=1195","","","Europe/Rome","2"
"226","1197","Fermata 1197 - PORTA SUSA CAP","PORTA SUSA - M1 - STAZIONE","45.07282","7.66759","2","http://www.gtt.to.it/cms/percorari/arrivi?option=com_gtt&view=palina&palina=1197","","","Europe/Rome","1"
"227","1198","Fermata 1198 - REBAUDENGO SUD","C. VERCELLI / P.REBAUDENGO","45.10281","7.69489","0","http://www.gtt.to.it/cms/percorari/arrivi?option=com_gtt&view=palina&palina=1198","","","Europe/Rome","1"
"228","1199","Fermata 1199 - REBAUDENGO SUD","C. VERCELLI / P.REBAUDENGO","45.10291","7.69528","0","http://www.gtt.to.it/cms/percorari/arrivi?option=com_gtt&view=palina&palina=1199","","","Europe/Rome","1"
"229","12","Fermata 12 - POZZO STRADA","POZZO STRADA - M1","45.07486","7.62916","0","http://www.gtt.to.it/cms/percorari/arrivi?option=com_gtt&view=palina&palina=12","","","Europe/Rome","1"
"230","120","Fermata 120 - PESCHIERA","C. TRAPANI / C. PESCHIERA","45.06944","7.63879","0","http://www.gtt.to.it/cms/percorari/arrivi?option=com_gtt&view=palina&palina=120","","","Europe/Rome","2"
"231","1200","Fermata 1200 - VERCELLI N.168","C. VERCELLI / V. MARTORELLI","45.10041","7.69397","0","http://www.gtt.to.it/cms/percorari/arrivi?option=com_gtt&view=palina&palina=1200","","","Europe/Rome","1"
"232","1201","Fermata 1201 - GOTTARDO","C. VERCELLI N.165","45.10061","7.69379","0","http://www.gtt.to.it/cms/percorari/arrivi?option=com_gtt&view=palina&palina=1201","","","Europe/Rome","1"
"233","1202","Fermata 1202 - RONDISSONE","C. VERCELLI N.144 BIS","45.09814","7.69283","0","http://www.gtt.to.it/cms/percorari/arrivi?option=com_gtt&view=palina&palina=1202","","","Europe/Rome","1"
"234","1203","Fermata 1203 - RONDISSONE","C. VERCELLI FRONTE N.140","45.09804","7.69258","0","http://www.gtt.to.it/cms/percorari/arrivi?option=com_gtt&view=palina&palina=1203","","","Europe/Rome","2"
"235","1204","Fermata 1204 - LAURO ROSSI","C. VERCELLI N.116","45.09503","7.69133","0","http://www.gtt.to.it/cms/percorari/arrivi?option=com_gtt&view=palina&palina=1204","","","Europe/Rome","1"
"236","1205","Fermata 1205 - LAURO ROSSI","C. VERCELLI N.111","45.09505","7.69111","0","http://www.gtt.to.it/cms/percorari/arrivi?option=com_gtt&view=palina&palina=1205","","","Europe/Rome","2"
"237","1206","Fermata 1206 - VALPRATO","C. VERCELLI N.96","45.0933","7.69047","0","http://www.gtt.to.it/cms/percorari/arrivi?option=com_gtt&view=palina&palina=1206","","","Europe/Rome","1"
"238","1207","Fermata 1207 - VALPRATO","C. VERCELLI / V. VALPRATO","45.09323","7.69024","0","http://www.gtt.to.it/cms/percorari/arrivi?option=com_gtt&view=palina&palina=1207","","","Europe/Rome","1"
"239","1208","Fermata 1208 - CRISPI NORD","C. VERCELLI / V. MALONE","45.08999","7.68888","0","http://www.gtt.to.it/cms/percorari/arrivi?option=com_gtt&view=palina&palina=1208","","","Europe/Rome","1"
"240","1209","Fermata 1209 - CRISPI NORD","C. VERCELLI / V. COURMAYEUR","45.09012","7.68877","0","http://www.gtt.to.it/cms/percorari/arrivi?option=com_gtt&view=palina&palina=1209","","","Europe/Rome","1"
"241","121","Fermata 121 - PESCHIERA","C. TRAPANI / C. PESCHIERA","45.06839","7.63829","0","http://www.gtt.to.it/cms/percorari/arrivi?option=com_gtt&view=palina&palina=121","","","Europe/Rome","1"
"242","1210","Fermata 1210 - CRISPI SUD","C. VERCELLI / C. VIGEVANO","45.08844","7.68796","0","http://www.gtt.to.it/cms/percorari/arrivi?option=com_gtt&view=palina&palina=1210","","","Europe/Rome","1"
"243","1211","Fermata 1211 - CRISPI SUD","C. VERCELLI / C. NOVARA","45.08854","7.68818","0","http://www.gtt.to.it/cms/percorari/arrivi?option=com_gtt&view=palina&palina=1211","","","Europe/Rome","1"
"246","1214","Fermata 1214 - VII CIRCOSCRIZIONE","CIRCOSCRIZIONE 7","45.08422","7.68576","0","http://www.gtt.to.it/cms/percorari/arrivi?option=com_gtt&view=palina&palina=1214","","","Europe/Rome","1"
"247","1215","Fermata 1215 - VII CIRCOSCRIZIONE","CIRCOSCRIZIONE 7","45.08451","7.68621","0","http://www.gtt.to.it/cms/percorari/arrivi?option=com_gtt&view=palina&palina=1215","","","Europe/Rome","1"
"248","1216","Fermata 1216 - EMILIA","C. GIULIO CESARE N.17","45.08176","7.68687","0","http://www.gtt.to.it/cms/percorari/arrivi?option=com_gtt&view=palina&palina=1216","","","Europe/Rome","1"
"249","1217","Fermata 1217 - EMILIA","C. GIULIO CESARE DOPO L.GO DORA FIRENZE","45.08233","7.68756","0","http://www.gtt.to.it/cms/percorari/arrivi?option=com_gtt&view=palina&palina=1217","","","Europe/Rome","1"
"250","1218","Fermata 1218 - BOLZANO CAP","BOLZANO - PORTA SUSA M1 - STAZIONE","45.07344","7.66799","2","http://www.gtt.to.it/cms/percorari/arrivi?option=com_gtt&view=palina&palina=1218","","","Europe/Rome","1"
"251","1219","Fermata 1219 - LEONARDO DA VINCI NORD","V.LE BATTISTI PRIMA DI V. L. DA VINCI GRUGLIASCO","45.05545","7.58623","3","http://www.gtt.to.it/cms/percorari/arrivi?option=com_gtt&view=palina&palina=1219","","","Europe/Rome","1"
"252","122","Fermata 122 - MONGINEVRO","MONGINEVRO - STABILIMENTO GTT SAN PAOLO","45.06485","7.63661","0","http://www.gtt.to.it/cms/percorari/arrivi?option=com_gtt&view=palina&palina=122","","","Europe/Rome","1"
"253","1220","Fermata 1220 - PASTRENGO","V. SACCHI DOPO V. PASTRENGO","45.05803","7.67408","0","http://www.gtt.to.it/cms/percorari/arrivi?option=com_gtt&view=palina&palina=1220","","","Europe/Rome","1"
"254","1222","Fermata 1222 - SAN PAOLO","SAN PAOLO - PARCO RUFFINI","45.05697","7.63605","0","http://www.gtt.to.it/cms/percorari/arrivi?option=com_gtt&view=palina&palina=1222","","","Europe/Rome","1"
"255","1223","Fermata 1223 - ISSIGLIO","C. ROSSELLI FRONTE N.208","45.05678","7.63941","0","http://www.gtt.to.it/cms/percorari/arrivi?option=com_gtt&view=palina&palina=1223","","","Europe/Rome","1"
"256","1224","Fermata 1224 - ISSIGLIO","C. ROSSELLI / V. ISSIGLIO","45.05721","7.63882","0","http://www.gtt.to.it/cms/percorari/arrivi?option=com_gtt&view=palina&palina=1224","","","Europe/Rome","1"
"257","1225","Fermata 1225 - TOLMINO","C. ROSSELLI / V. TOLMINO","45.05576","7.64402","0","http://www.gtt.to.it/cms/percorari/arrivi?option=com_gtt&view=palina&palina=1225","","","Europe/Rome","1"
"258","1226","Fermata 1226 - TOLMINO","C. ROSSELLI DOPO V. TOLMINO","45.05596","7.64416","0","http://www.gtt.to.it/cms/percorari/arrivi?option=com_gtt&view=palina&palina=1226","","","Europe/Rome","1"
"8702","12263","Fermata 12263 - LEINI (V.LE EUROPA/V.VOLPIANO)","Viale Europa, 58","45.18594","7.72027","3","http://www.gtt.to.it/cms/percorari/arrivi?option=com_gtt&view=palina&palina=12263","","","Europe/Rome","2"
"259","1227","Fermata 1227 - MARMOLADA","MARMOLADA - PARCO MENNEA","45.05421","7.65064","0","http://www.gtt.to.it/cms/percorari/arrivi?option=com_gtt&view=palina&palina=1227","","","Europe/Rome","1"
"260","1228","Fermata 1228 - MARMOLADA","MARMOLADA - PARCO MENNEA","45.05446","7.6508","0","http://www.gtt.to.it/cms/percorari/arrivi?option=com_gtt&view=palina&palina=1228","","","Europe/Rome","1"
"261","1229","Fermata 1229 - ORBASSANO OVEST","C. ROSSELLI N.93","45.05359","7.65327","0","http://www.gtt.to.it/cms/percorari/arrivi?option=com_gtt&view=palina&palina=1229","","","Europe/Rome","1"
"262","123","Fermata 123 - MONGINEVRO","MONGINEVRO - STABILIMENTO GTT SAN PAOLO","45.06483","7.63675","0","http://www.gtt.to.it/cms/percorari/arrivi?option=com_gtt&view=palina&palina=123","","","Europe/Rome","1"
"263","1230","Fermata 1230 - ORBASSANO OVEST","C. ROSSELLI DOPO C. MEDITERRANEO","45.05358","7.65461","0","http://www.gtt.to.it/cms/percorari/arrivi?option=com_gtt&view=palina&palina=1230","","","Europe/Rome","1"
"264","1231","Fermata 1231 - EXILLES","C. FRANCIA / V. POZZO EXILLES","45.07511","7.63169","0","http://www.gtt.to.it/cms/percorari/arrivi?option=com_gtt&view=palina&palina=1231","","","Europe/Rome","1"
"265","1232","Fermata 1232 - CAIO MARIO CAP","CAIO MARIO","45.02439","7.63627","2","http://www.gtt.to.it/cms/percorari/arrivi?option=com_gtt&view=palina&palina=1232","","","Europe/Rome","1"
"267","1234","Fermata 1234 - LEINI","V. FANTINA DOPO V. LEINI","45.14034","7.76185","3","http://www.gtt.to.it/cms/percorari/arrivi?option=com_gtt&view=palina&palina=1234","","","Europe/Rome","1"
"268","1235","Fermata 1235 - GIORDANO BRUNO","C. BRAMANTE DOPO V. GIORDANO BRUNO","45.04545","7.66434","0","http://www.gtt.to.it/cms/percorari/arrivi?option=com_gtt&view=palina&palina=1235","","","Europe/Rome","1"
"269","1236","Fermata 1236 - CARDUCCI NORD","CARDUCCI NORD - M1","45.04243","7.67192","0","http://www.gtt.to.it/cms/percorari/arrivi?option=com_gtt&view=palina&palina=1236","","","Europe/Rome","1"
"270","1237","Fermata 1237 - MOLINETTE","OSPEDALE MOLINETTE","45.04188","7.67513","0","http://www.gtt.to.it/cms/percorari/arrivi?option=com_gtt&view=palina&palina=1237","","","Europe/Rome","1"
"271","1238","Fermata 1238 - OSPEDALE MOLINETTE","C. BRAMANTE / V. GIOTTO","45.0421","7.67447","0","http://www.gtt.to.it/cms/percorari/arrivi?option=com_gtt&view=palina&palina=1238","","","Europe/Rome","1"
"272","1239","Fermata 1239 - ZARA","P.ZARA","45.03933","7.68179","0","http://www.gtt.to.it/cms/percorari/arrivi?option=com_gtt&view=palina&palina=1239","","","Europe/Rome","1"
"273","124","Fermata 124 - LANCIA","C. TRAPANI DOPO V. LANCIA","45.06136","7.63521","0","http://www.gtt.to.it/cms/percorari/arrivi?option=com_gtt&view=palina&palina=124","","","Europe/Rome","1"
"274","1240","Fermata 1240 - ZARA","P. ZARA","45.03954","7.68177","0","http://www.gtt.to.it/cms/percorari/arrivi?option=com_gtt&view=palina&palina=1240","","","Europe/Rome","1"
"275","1241","Fermata 1241 - SABAUDIA","C. MONCALIERI N.248","45.03761","7.68144","0","http://www.gtt.to.it/cms/percorari/arrivi?option=com_gtt&view=palina&palina=1241","","","Europe/Rome","2"
"276","1242","Fermata 1242 - SABAUDIA","C. MONCALIERI FRONTE N.250","45.03748","7.68154","0","http://www.gtt.to.it/cms/percorari/arrivi?option=com_gtt&view=palina&palina=1242","","","Europe/Rome","1"
"277","1243","Fermata 1243 - PONTE DEL GATTO","V. SABAUDIA N.25","45.03434","7.68484","0","http://www.gtt.to.it/cms/percorari/arrivi?option=com_gtt&view=palina&palina=1243","","","Europe/Rome","1"
"278","1244","Fermata 1244 - PONTE DEL GATTO","V.LE XXV APRILE N.2","45.03418","7.68493","0","http://www.gtt.to.it/cms/percorari/arrivi?option=com_gtt&view=palina&palina=1244","","","Europe/Rome","1"
"279","1245","Fermata 1245 - XXV APRILE N.29","V.LE XXV APRILE N.29","45.0336","7.6868","0","http://www.gtt.to.it/cms/percorari/arrivi?option=com_gtt&view=palina&palina=1245","","","Europe/Rome","1"
"280","1246","Fermata 1246 - XXV APRILE N.68","V.LE XXV APRILE N.68","45.03478","7.68618","0","http://www.gtt.to.it/cms/percorari/arrivi?option=com_gtt&view=palina&palina=1246","","","Europe/Rome","1"
"281","1247","Fermata 1247 - XXV APRILE N.65","V.LE XXV APRILE FRONTE N.68","45.03473","7.68622","0","http://www.gtt.to.it/cms/percorari/arrivi?option=com_gtt&view=palina&palina=1247","","","Europe/Rome","2"
"282","1248","Fermata 1248 - XXV APRILE N.102","V.LE XXV APRILE N.106","45.03474","7.68801","0","http://www.gtt.to.it/cms/percorari/arrivi?option=com_gtt&view=palina&palina=1248","","","Europe/Rome","2"
"283","1249","Fermata 1249 - XXV APRILE N.102","V.LE XXV APRILE FRONTE N.101","45.03484","7.68794","0","http://www.gtt.to.it/cms/percorari/arrivi?option=com_gtt&view=palina&palina=1249","","","Europe/Rome","2"
"284","125","Fermata 125 - LANCIA","C. TRAPANI / V. LANCIA","45.06192","7.63549","0","http://www.gtt.to.it/cms/percorari/arrivi?option=com_gtt&view=palina&palina=125","","","Europe/Rome","1"
"285","1250","Fermata 1250 - VAL PATTONERA","V.LE XXV APRILE FRONTE N.136","45.03349","7.69041","0","http://www.gtt.to.it/cms/percorari/arrivi?option=com_gtt&view=palina&palina=1250","","","Europe/Rome","2"
"286","12506","Fermata 12506 - LEINI (STR. VOLPIANO 23)","Via Volpiano, 28","45.18467","7.72163","3","http://www.gtt.to.it/cms/percorari/arrivi?option=com_gtt&view=palina&palina=12506","","","Europe/Rome","2"
"287","12509","Fermata 12509 - LEINI (BALTEA-BUFFETTI)","Via Volpiano, 62","45.18448","7.73008","3","http://www.gtt.to.it/cms/percorari/arrivi?option=com_gtt&view=palina&palina=12509","","","Europe/Rome","2"
"288","1251","Fermata 1251 - VAL PATTONERA","V.LE XXV APRILE N.134","45.03284","7.69129","0","http://www.gtt.to.it/cms/percorari/arrivi?option=com_gtt&view=palina&palina=1251","","","Europe/Rome","1"
"289","12512","Fermata 12512 - LEINI (MANTOVANI)","Via Volpiano, 188","45.18868","7.74587","3","http://www.gtt.to.it/cms/percorari/arrivi?option=com_gtt&view=palina&palina=12512","","","Europe/Rome","2"
"290","12515","Fermata 12515 - VOLPIANO (BAR PINA)","Via Leini, 237","45.19424","7.75903","3","http://www.gtt.to.it/cms/percorari/arrivi?option=com_gtt&view=palina&palina=12515","","","Europe/Rome","2"
"291","12518","Fermata 12518 - VOLPIANO (GOMMISTA)","Via Leini, 49","45.19699","7.76719","3","http://www.gtt.to.it/cms/percorari/arrivi?option=com_gtt&view=palina&palina=12518","","","Europe/Rome","2"
"292","1252","Fermata 1252 - XXV APRILE N.167","V.LE XXV APRILE N.167","45.03219","7.69375","0","http://www.gtt.to.it/cms/percorari/arrivi?option=com_gtt&view=palina&palina=1252","","","Europe/Rome","2"
"293","12521","Fermata 12521 - VOLPIANO (BV. CEBROSA)","Corso Regina Margherita, 16","45.19927","7.77439","3","http://www.gtt.to.it/cms/percorari/arrivi?option=com_gtt&view=palina&palina=12521","","","Europe/Rome","2"
"294","12524","Fermata 12524 - VOLPIANO (STAZIONE)","Volpiano Stazione","45.2007","7.77975","3","http://www.gtt.to.it/cms/percorari/arrivi?option=com_gtt&view=palina&palina=12524","","","Europe/Rome","2"
"295","1253","Fermata 1253 - XXV APRILE N.164","V.LE XXV APRILE N.164","45.03197","7.6931","0","http://www.gtt.to.it/cms/percorari/arrivi?option=com_gtt&view=palina&palina=1253","","","Europe/Rome","2"
"296","1254","Fermata 1254 - CAVORETTO CAP","CAVORETTO","45.02978","7.6883","2","http://www.gtt.to.it/cms/percorari/arrivi?option=com_gtt&view=palina&palina=1254","","","Europe/Rome","1"
"297","1255","Fermata 1255 - XXV APRILE N.56","V.LE XXV APRILE N.56","45.03371","7.68688","0","http://www.gtt.to.it/cms/percorari/arrivi?option=com_gtt&view=palina&palina=1255","","","Europe/Rome","1"
"298","1256","Fermata 1256 - QUERCE SUD","V. DEGLI ULIVI / V. DELLE QUERCE","45.12961","7.70583","0","http://www.gtt.to.it/cms/percorari/arrivi?option=com_gtt&view=palina&palina=1256","","","Europe/Rome","1"
"299","1257","Fermata 1257 - ULIVI N.12","V. DEGLI ULIVI FRONTE N.12","45.13214","7.707","0","http://www.gtt.to.it/cms/percorari/arrivi?option=com_gtt&view=palina&palina=1257","","","Europe/Rome","1"
"300","1258","Fermata 1258 - QUERCE","V. DEGLI ABETI N.6","45.1296","7.71024","0","http://www.gtt.to.it/cms/percorari/arrivi?option=com_gtt&view=palina&palina=1258","","","Europe/Rome","1"
"301","1259","Fermata 1259 - ABETI NORD","V. DEGLI ULIVI N.19","45.13235","7.71178","0","http://www.gtt.to.it/cms/percorari/arrivi?option=com_gtt&view=palina&palina=1259","","","Europe/Rome","1"
"302","126","Fermata 126 - PARCO RUFFINI","C. TRAPANI-PALASPORT","45.05689","7.63481","0","http://www.gtt.to.it/cms/percorari/arrivi?option=com_gtt&view=palina&palina=126","","","Europe/Rome","1"
"303","1260","Fermata 1260 - ABETI NORD","V. DEGLI ULIVI FRONTE N.19","45.13229","7.71176","0","http://www.gtt.to.it/cms/percorari/arrivi?option=com_gtt&view=palina&palina=1260","","","Europe/Rome","1"
"304","1261","Fermata 1261 - VOLGOGRAD NORD","V. DEGLI ULIVI N.35-37","45.13157","7.71361","0","http://www.gtt.to.it/cms/percorari/arrivi?option=com_gtt&view=palina&palina=1261","","","Europe/Rome","1"
"305","1262","Fermata 1262 - VOLGOGRAD NORD","V. DEGLI ULIVI N.82","45.13051","7.71562","0","http://www.gtt.to.it/cms/percorari/arrivi?option=com_gtt&view=palina&palina=1262","","","Europe/Rome","1"
"306","1263","Fermata 1263 - VOLGOGRAD SUD","V. DEGLI ULIVI FRONTE N.112","45.12852","7.71624","0","http://www.gtt.to.it/cms/percorari/arrivi?option=com_gtt&view=palina&palina=1263","","","Europe/Rome","1"
"307","1264","Fermata 1264 - VOLGOGRAD SUD","V. DEGLI ULIVI N.112","45.12873","7.71614","0","http://www.gtt.to.it/cms/percorari/arrivi?option=com_gtt&view=palina&palina=1264","","","Europe/Rome","1"
"308","1265","Fermata 1265 - ULIVI","V. DELLE QUERCE FRONTE N.81","45.12716","7.7145","0","http://www.gtt.to.it/cms/percorari/arrivi?option=com_gtt&view=palina&palina=1265","","","Europe/Rome","1"
"309","1266","Fermata 1266 - ROBINIE","V. DELLE QUERCE N.75","45.12745","7.71332","0","http://www.gtt.to.it/cms/percorari/arrivi?option=com_gtt&view=palina&palina=1266","","","Europe/Rome","1"
"310","1267","Fermata 1267 - ABETI","V. DELLE QUERCE FRONTE N.49","45.12874","7.71054","0","http://www.gtt.to.it/cms/percorari/arrivi?option=com_gtt&view=palina&palina=1267","","","Europe/Rome","1"
"311","1268","Fermata 1268 - FRASSINI","P. FALCHERA / V. DEI FRASSINI","45.12723","7.70811","0","http://www.gtt.to.it/cms/percorari/arrivi?option=com_gtt&view=palina&palina=1268","","","Europe/Rome","2"
"312","1269","Fermata 1269 - FRASSINI","V. FALCHERA / V. DELLE ROBINIE","45.1272","7.70874","0","http://www.gtt.to.it/cms/percorari/arrivi?option=com_gtt&view=palina&palina=1269","","","Europe/Rome","1"
"313","127","Fermata 127 - PARCO RUFFINI","C. TRAPANI / V. SAN PAOLO","45.05708","7.63504","0","http://www.gtt.to.it/cms/percorari/arrivi?option=com_gtt&view=palina&palina=127","","","Europe/Rome","1"
"314","1270","Fermata 1270 - BETULLE","V. FALCHERA N.57","45.12519","7.7087","0","http://www.gtt.to.it/cms/percorari/arrivi?option=com_gtt&view=palina&palina=1270","","","Europe/Rome","1"
"315","1271","Fermata 1271 - BETULLE","V. FALCHERA N.60","45.12512","7.70892","0","http://www.gtt.to.it/cms/percorari/arrivi?option=com_gtt&view=palina&palina=1271","","","Europe/Rome","1"
"316","1272","Fermata 1272 - ABBADIA DI STURA","V. FALCHERA FRONTE STR. ABBADIA DI STURA","45.12303","7.70708","0","http://www.gtt.to.it/cms/percorari/arrivi?option=com_gtt&view=palina&palina=1272","","","Europe/Rome","1"
"317","1273","Fermata 1273 - ABBADIA DI STURA","V. FALCHERA / STR. ABBADIA DI STURA","45.12305","7.70756","0","http://www.gtt.to.it/cms/percorari/arrivi?option=com_gtt&view=palina&palina=1273","","","Europe/Rome","1"
"318","1274","Fermata 1274 - CUORGNÈ","CUORGNE'","45.12248","7.70422","0","http://www.gtt.to.it/cms/percorari/arrivi?option=com_gtt&view=palina&palina=1274","","","Europe/Rome","1"
"319","1275","Fermata 1275 - CUORGNÈ","CUORGNE'","45.12238","7.70407","0","http://www.gtt.to.it/cms/percorari/arrivi?option=com_gtt&view=palina&palina=1275","","","Europe/Rome","1"
"320","1276","Fermata 1276 - VERCELLI","V. IVREA N.47","45.11662","7.70545","0","http://www.gtt.to.it/cms/percorari/arrivi?option=com_gtt&view=palina&palina=1276","","","Europe/Rome","1"
"321","1277","Fermata 1277 - VERCELLI","V. IVREA / C. VERCELLI","45.1166","7.70571","0","http://www.gtt.to.it/cms/percorari/arrivi?option=com_gtt&view=palina&palina=1277","","","Europe/Rome","1"
"322","1278","Fermata 1278 - GIULIO CESARE","V. IVREA / V. CAREMA","45.11375","7.70606","0","http://www.gtt.to.it/cms/percorari/arrivi?option=com_gtt&view=palina&palina=1278","","","Europe/Rome","1"
"323","1279","Fermata 1279 - GIULIO CESARE","V. IVREA / V. SAMONE","45.1136","7.70626","0","http://www.gtt.to.it/cms/percorari/arrivi?option=com_gtt&view=palina&palina=1279","","","Europe/Rome","1"
"324","128","Fermata 128 - MONFALCONE","C. SIRACUSA / V. MONFALCONE","45.05292","7.63458","0","http://www.gtt.to.it/cms/percorari/arrivi?option=com_gtt&view=palina&palina=128","","","Europe/Rome","1"
"325","1280","Fermata 1280 - SCOTELLARO","C. GIULIO CESARE N.317","45.10854","7.70419","0","http://www.gtt.to.it/cms/percorari/arrivi?option=com_gtt&view=palina&palina=1280","","","Europe/Rome","1"
"326","1281","Fermata 1281 - SCOTELLARO","C. GIULIO CESARE N.334","45.10858","7.7046","0","http://www.gtt.to.it/cms/percorari/arrivi?option=com_gtt&view=palina&palina=1281","","","Europe/Rome","1"
"327","1282","Fermata 1282 - OXILIA","C. GIULIO CESARE DOPO V.OXILIA","45.10482","7.70172","0","http://www.gtt.to.it/cms/percorari/arrivi?option=com_gtt&view=palina&palina=1282","","","Europe/Rome","1"
"328","1283","Fermata 1283 - OXILIA","C. GIULIO CESARE DOPO V. OXILIA","45.10497","7.70223","0","http://www.gtt.to.it/cms/percorari/arrivi?option=com_gtt&view=palina&palina=1283","","","Europe/Rome","2"
"329","1284","Fermata 1284 - PORPORA","C. GIULIO CESARE N.183","45.09836","7.69753","0","http://www.gtt.to.it/cms/percorari/arrivi?option=com_gtt&view=palina&palina=1284","","","Europe/Rome","1"
"330","1285","Fermata 1285 - GOTTARDO","GOTTARDO (OSP. S.GIOVANNI BOSCO)","45.09706","7.69694","0","http://www.gtt.to.it/cms/percorari/arrivi?option=com_gtt&view=palina&palina=1285","","","Europe/Rome","1"
"331","1286","Fermata 1286 - MARTORELLI","V. LAURO ROSSI DOPO V. OZEGNA","45.09469","7.69469","0","http://www.gtt.to.it/cms/percorari/arrivi?option=com_gtt&view=palina&palina=1286","","","Europe/Rome","1"
"332","1287","Fermata 1287 - XXV APRILE NORD","V. MIRAFLORES / V. XXV APRILE NICHELINO","45.00232","7.64963","3","http://www.gtt.to.it/cms/percorari/arrivi?option=com_gtt&view=palina&palina=1287","","","Europe/Rome","1"
"333","1288","Fermata 1288 - XXV APRILE NORD","V. MIRAFLORES DOPO V. XXV APRILE NICHELINO","45.00229","7.65001","3","http://www.gtt.to.it/cms/percorari/arrivi?option=com_gtt&view=palina&palina=1288","","","Europe/Rome","1"
"334","1289","Fermata 1289 - TORRICELLI","V. MIRAFLORES DOPO V. TORRICELLI NICHELINO","45.005","7.64952","3","http://www.gtt.to.it/cms/percorari/arrivi?option=com_gtt&view=palina&palina=1289","","","Europe/Rome","1"
"335","129","Fermata 129 - MONFALCONE","C. SIRACUSA / V. MONFALCONE","45.05238","7.6347","0","http://www.gtt.to.it/cms/percorari/arrivi?option=com_gtt&view=palina&palina=129","","","Europe/Rome","1"
"336","1290","Fermata 1290 - TORRICELLI","V. MIRAFLORES / V. TORRICELLI NICHELINO","45.00506","7.64979","3","http://www.gtt.to.it/cms/percorari/arrivi?option=com_gtt&view=palina&palina=1290","","","Europe/Rome","1"
"337","1291","Fermata 1291 - GIULIO CESARE","V. OXILIA N.6","45.10493","7.70083","0","http://www.gtt.to.it/cms/percorari/arrivi?option=com_gtt&view=palina&palina=1291","","","Europe/Rome","2"
"338","1292","Fermata 1292 - CASTELLO DI MIRAFIORI","V. ARTOM / STR. CASTELLO DI MIRAFIORI","45.00913","7.65003","3","http://www.gtt.to.it/cms/percorari/arrivi?option=com_gtt&view=palina&palina=1292","","","Europe/Rome","1"
"340","1294","Fermata 1294 - SOLFERINO","P. SOLFERINO N.3","45.06933","7.67772","0","http://www.gtt.to.it/cms/percorari/arrivi?option=com_gtt&view=palina&palina=1294","","","Europe/Rome","1"
"341","1295","Fermata 1295 - RE UMBERTO","C. MATTEOTTI / C. RE UMBERTO","45.06625","7.6745","0","http://www.gtt.to.it/cms/percorari/arrivi?option=com_gtt&view=palina&palina=1295","","","Europe/Rome","1"
"342","1297","Fermata 1297 - PORTA SUSA CAP","PORTA SUSA - M1 - STAZIONE","45.07348","7.66786","2","http://www.gtt.to.it/cms/percorari/arrivi?option=com_gtt&view=palina&palina=1297","","","Europe/Rome","1"
"343","1298","Fermata 1298 - XVIII DICEMBRE","XVIII DICEMBRE - M1 - PORTA SUSA","45.07425","7.6681","0","http://www.gtt.to.it/cms/percorari/arrivi?option=com_gtt&view=palina&palina=1298","","","Europe/Rome","1"
"344","13","Fermata 13 - RIVOLI","RIVOLI - M1","45.07548","7.64448","0","http://www.gtt.to.it/cms/percorari/arrivi?option=com_gtt&view=palina&palina=13","","","Europe/Rome","1"
"345","130","Fermata 130 - SEBASTOPOLI","C. SIRACUSA / C. SEBASTOPOLI","45.05","7.63445","0","http://www.gtt.to.it/cms/percorari/arrivi?option=com_gtt&view=palina&palina=130","","","Europe/Rome","1"
"346","1300","Fermata 1300 - PORTA SUSA","PORTA SUSA - M1 - STAZIONE","45.0707","7.66569","0","http://www.gtt.to.it/cms/percorari/arrivi?option=com_gtt&view=palina&palina=1300","","","Europe/Rome","1"
"347","1301","Fermata 1301 - DON BOSCO","C. PRINCIPE ODDONE DOPO V. DON BOSCO","45.08214","7.67243","0","http://www.gtt.to.it/cms/percorari/arrivi?option=com_gtt&view=palina&palina=1301","","","Europe/Rome","1"
"348","1302","Fermata 1302 - DON BOSCO","C. PRINCIPE ODDONE FRONTE N.34","45.08199","7.67205","0","http://www.gtt.to.it/cms/percorari/arrivi?option=com_gtt&view=palina&palina=1302","","","Europe/Rome","1"
"349","1303","Fermata 1303 - CIRIÈ","CIRIE'","45.08485","7.67426","0","http://www.gtt.to.it/cms/percorari/arrivi?option=com_gtt&view=palina&palina=1303","","","Europe/Rome","1"
"350","1304","Fermata 1304 - CIRIÈ","CIRIE'","45.08406","7.67344","0","http://www.gtt.to.it/cms/percorari/arrivi?option=com_gtt&view=palina&palina=1304","","","Europe/Rome","1"
"8703","13043","Fermata 13043 - SETTIMO (C.SO BRUNELLESCHI)","SETTIMO (VIA BRUNELLESCHI)","45.14134","7.76101","3","http://www.gtt.to.it/cms/percorari/arrivi?option=com_gtt&view=palina&palina=13043","","","Europe/Rome","2"
"351","1305","Fermata 1305 - FORTINO","C. PRINCIPE ODDONE N.80","45.08667","7.67551","0","http://www.gtt.to.it/cms/percorari/arrivi?option=com_gtt&view=palina&palina=1305","","","Europe/Rome","1"
"352","1306","Fermata 1306 - FORTINO","C. PRINCIPE ODDONE FRONTE L.GO DORA AGRIGENTO","45.08578","7.67461","0","http://www.gtt.to.it/cms/percorari/arrivi?option=com_gtt&view=palina&palina=1306","","","Europe/Rome","1"
"353","1307","Fermata 1307 - BALDISSERA","C. PRINCIPE ODDONE N.94 BIS","45.08944","7.67742","0","http://www.gtt.to.it/cms/percorari/arrivi?option=com_gtt&view=palina&palina=1307","","","Europe/Rome","1"
"354","1308","Fermata 1308 - BALDISSERA","C. PRINCIPE ODDONE FRONTE N.94","45.08902","7.67684","0","http://www.gtt.to.it/cms/percorari/arrivi?option=com_gtt&view=palina&palina=1308","","","Europe/Rome","1"
"355","1309","Fermata 1309 - CIGNA","C. VIGEVANO / V. PIOSSASCO","45.08953","7.68202","0","http://www.gtt.to.it/cms/percorari/arrivi?option=com_gtt&view=palina&palina=1309","","","Europe/Rome","1"
"356","131","Fermata 131 - SEBASTOPOLI","C. SIRACUSA / C. SEBASTOPOLI","45.04821","7.63455","0","http://www.gtt.to.it/cms/percorari/arrivi?option=com_gtt&view=palina&palina=131","","","Europe/Rome","1"
"357","1310","Fermata 1310 - CIGNA","C. VIGEVANO DOPO V. CIGNA","45.08969","7.68305","0","http://www.gtt.to.it/cms/percorari/arrivi?option=com_gtt&view=palina&palina=1310","","","Europe/Rome","1"
"358","1311","Fermata 1311 - CRISPI OVEST","C. VIGEVANO FRONTE N.4","45.08881","7.6875","0","http://www.gtt.to.it/cms/percorari/arrivi?option=com_gtt&view=palina&palina=1311","","","Europe/Rome","1"
"359","1312","Fermata 1312 - CRISPI OVEST","C. VIGEVANO / V. BANFO","45.08915","7.68741","0","http://www.gtt.to.it/cms/percorari/arrivi?option=com_gtt&view=palina&palina=1312","","","Europe/Rome","1"
"360","1313","Fermata 1313 - REGIO PARCO","C. IV. NOVEMBRE N.17","45.12972","7.75446","3","http://www.gtt.to.it/cms/percorari/arrivi?option=com_gtt&view=palina&palina=1313","","","Europe/Rome","1"
"361","1314","Fermata 1314 - ARONA","V. BRUERE N.305 RIVOLI","45.08688","7.5491","3","http://www.gtt.to.it/cms/percorari/arrivi?option=com_gtt&view=palina&palina=1314","","","Europe/Rome","1"
"362","1315","Fermata 1315 - PIRANDELLO","V. TORINO N.49","45.13321","7.75889","3","http://www.gtt.to.it/cms/percorari/arrivi?option=com_gtt&view=palina&palina=1315","","","Europe/Rome","1"
"363","1316","Fermata 1316 - STURA","L.GO STURA LAZIO N.45 ING.1","45.11118","7.70942","0","http://www.gtt.to.it/cms/percorari/arrivi?option=com_gtt&view=palina&palina=1316","","","Europe/Rome","2"
"364","1317","Fermata 1317 - D'AZEGLIO","V. TORINO N.23 / B","45.13471","7.76422","3","http://www.gtt.to.it/cms/percorari/arrivi?option=com_gtt&view=palina&palina=1317","","","Europe/Rome","1"
"365","1318","Fermata 1318 - CHIOMO","V. TORINO N.6A","45.13614","7.76832","3","http://www.gtt.to.it/cms/percorari/arrivi?option=com_gtt&view=palina&palina=1318","","","Europe/Rome","1"
"366","1319","Fermata 1319 - ROMOLO E REMO","L.GO STURA LAZIO / P.LE ROMOLO E REMO","45.1118","7.70799","0","http://www.gtt.to.it/cms/percorari/arrivi?option=com_gtt&view=palina&palina=1319","","","Europe/Rome","2"
"367","132","Fermata 132 - FILADELFIA","C. SIRACUSA N.104","45.0463","7.63412","0","http://www.gtt.to.it/cms/percorari/arrivi?option=com_gtt&view=palina&palina=132","","","Europe/Rome","1"
"368","1320","Fermata 1320 - STURA C.2","L.GO STURA LAZIO N.49 ING. 2","45.10859","7.71418","0","http://www.gtt.to.it/cms/percorari/arrivi?option=com_gtt&view=palina&palina=1320","","","Europe/Rome","1"
"369","1322","Fermata 1322 - PUGLIA C.3","V. PUGLIA FRONTE V. CENTALLO","45.10603","7.72064","0","http://www.gtt.to.it/cms/percorari/arrivi?option=com_gtt&view=palina&palina=1322","","","Europe/Rome","1"
"370","1323","Fermata 1323 - STURA","L.GO STURA LAZIO FRONTE N.45 ING. 1","45.1108","7.70987","0","http://www.gtt.to.it/cms/percorari/arrivi?option=com_gtt&view=palina&palina=1323","","","Europe/Rome","2"
"371","1324","Fermata 1324 - PUGLIA N.35","V. PUGLIA N.35","45.10665","7.72308","0","http://www.gtt.to.it/cms/percorari/arrivi?option=com_gtt&view=palina&palina=1324","","","Europe/Rome","1"
"372","1325","Fermata 1325 - STURA C.2","L.GO STURA LAZIO FRONTE N.49 ING. 2","45.1085","7.71408","0","http://www.gtt.to.it/cms/percorari/arrivi?option=com_gtt&view=palina&palina=1325","","","Europe/Rome","1"
"373","1326","Fermata 1326 - PUGLIA C.4","V. PUGLIA N.59 C.4","45.10731","7.72561","0","http://www.gtt.to.it/cms/percorari/arrivi?option=com_gtt&view=palina&palina=1326","","","Europe/Rome","1"
"374","1327","Fermata 1327 - CENTRO COMMERCIALE NORD","C. GIULIO CESARE / P.LE AUTOSTRADA","45.11766","7.71074","0","http://www.gtt.to.it/cms/percorari/arrivi?option=com_gtt&view=palina&palina=1327","","","Europe/Rome","1"
"375","1328","Fermata 1328 - MONDOVÌ","MONDOVI'","45.07681","7.54211","3","http://www.gtt.to.it/cms/percorari/arrivi?option=com_gtt&view=palina&palina=1328","","","Europe/Rome","1"
"376","1329","Fermata 1329 - PISTOIA","V. BRUERE FRONTE N.4 RIVOLI","45.07156","7.5391","3","http://www.gtt.to.it/cms/percorari/arrivi?option=com_gtt&view=palina&palina=1329","","","Europe/Rome","1"
"377","133","Fermata 133 - FILADELFIA","C. SIRACUSA / V. FILADELFIA","45.04621","7.63436","0","http://www.gtt.to.it/cms/percorari/arrivi?option=com_gtt&view=palina&palina=133","","","Europe/Rome","1"
"378","1330","Fermata 1330 - TEMPIA","TEMPIA - PARCHEGGIO STURA","45.11826","7.70875","0","http://www.gtt.to.it/cms/percorari/arrivi?option=com_gtt&view=palina&palina=1330","","","Europe/Rome","1"
"379","1331","Fermata 1331 - TEMPIA","C. VERCELLI N.457","45.11776","7.70623","0","http://www.gtt.to.it/cms/percorari/arrivi?option=com_gtt&view=palina&palina=1331","","","Europe/Rome","1"
"380","1332","Fermata 1332 - CAFASSO","C. CASALE 410","45.08586","7.73341","0","http://www.gtt.to.it/cms/percorari/arrivi?option=com_gtt&view=palina&palina=1332","","","Europe/Rome","1"
"381","1333","Fermata 1333 - CENTRO COMMERCIALE","C. ROMANIA DOPO P.LE AUTOSTRADE","45.11945","7.71265","0","http://www.gtt.to.it/cms/percorari/arrivi?option=com_gtt&view=palina&palina=1333","","","Europe/Rome","1"
"384","1337","Fermata 1337 - NERVI","V. TORINO DOPO V. NERVI SETTIMO","45.12661","7.73683","3","http://www.gtt.to.it/cms/percorari/arrivi?option=com_gtt&view=palina&palina=1337","","","Europe/Rome","2"
"385","1338","Fermata 1338 - CASCINETTE C.6 CAP","CASCINETTE C.6","45.11505","7.7202","2","http://www.gtt.to.it/cms/percorari/arrivi?option=com_gtt&view=palina&palina=1338","","","Europe/Rome","1"
"386","1339","Fermata 1339 - VILLAGGIO OLIMPIA","C. TORINO N.99","45.12458","7.72983","3","http://www.gtt.to.it/cms/percorari/arrivi?option=com_gtt&view=palina&palina=1339","","","Europe/Rome","2"
"387","134","Fermata 134 - PITAGORA NORD","C. SIRACUSA / P.PITAGORA","45.04104","7.63393","0","http://www.gtt.to.it/cms/percorari/arrivi?option=com_gtt&view=palina&palina=134","","","Europe/Rome","1"
"388","1340","Fermata 1340 - VITTORIO VENETO","P. VITTORIO VENETO N.10","45.13646","7.77162","3","http://www.gtt.to.it/cms/percorari/arrivi?option=com_gtt&view=palina&palina=1340","","","Europe/Rome","1"
"389","1341","Fermata 1341 - CREMONA","V. MILANO N.59","45.1441","7.77919","3","http://www.gtt.to.it/cms/percorari/arrivi?option=com_gtt&view=palina&palina=1341","","","Europe/Rome","1"
"390","1342","Fermata 1342 - NERVI","V. TORINO DOPO V. NERVI","45.12676","7.73675","3","http://www.gtt.to.it/cms/percorari/arrivi?option=com_gtt&view=palina&palina=1342","","","Europe/Rome","1"
"392","1345","Fermata 1345 - TORINO N.91","C. TORINO N.91","45.12938","7.74615","3","http://www.gtt.to.it/cms/percorari/arrivi?option=com_gtt&view=palina&palina=1345","","","Europe/Rome","2"
"393","1346","Fermata 1346 - TORINO N.91","V. TORINO FRONTE N.91","45.12949","7.74592","3","http://www.gtt.to.it/cms/percorari/arrivi?option=com_gtt&view=palina&palina=1346","","","Europe/Rome","2"
"394","1347","Fermata 1347 - TORINO N.116","C. TORINO FRONTE N.116","45.1308","7.75093","3","http://www.gtt.to.it/cms/percorari/arrivi?option=com_gtt&view=palina&palina=1347","","","Europe/Rome","2"
"395","1348","Fermata 1348 - TORINO N.116","V. TORINO N.116","45.13103","7.75098","3","http://www.gtt.to.it/cms/percorari/arrivi?option=com_gtt&view=palina&palina=1348","","","Europe/Rome","2"
"396","1349","Fermata 1349 - PIEMONTE","V. TORINO FRONTE C. PIEMONTE","45.13194","7.75459","3","http://www.gtt.to.it/cms/percorari/arrivi?option=com_gtt&view=palina&palina=1349","","","Europe/Rome","1"
"397","135","Fermata 135 - PITAGORA NORD","C. SIRACUSA N.165","45.04137","7.63407","0","http://www.gtt.to.it/cms/percorari/arrivi?option=com_gtt&view=palina&palina=135","","","Europe/Rome","1"
"398","1350","Fermata 1350 - PIEMONTE","V. TORINO DOPO C. PIEMONTE","45.13189","7.75421","3","http://www.gtt.to.it/cms/percorari/arrivi?option=com_gtt&view=palina&palina=1350","","","Europe/Rome","1"
"399","1351","Fermata 1351 - CUNEO","C. AGNELLI PRIMA DI V. CUNEO","45.13164","7.76098","3","http://www.gtt.to.it/cms/percorari/arrivi?option=com_gtt&view=palina&palina=1351","","","Europe/Rome","1"
"400","1352","Fermata 1352 - MEUCCI","V. DELLA REPUBBLICA N.34","45.1344","7.76131","3","http://www.gtt.to.it/cms/percorari/arrivi?option=com_gtt&view=palina&palina=1352","","","Europe/Rome","1"
"401","1353","Fermata 1353 - ALESSANDRIA","C. AGNELLI DOPO V. ALESSANDRIA","45.12964","7.76406","3","http://www.gtt.to.it/cms/percorari/arrivi?option=com_gtt&view=palina&palina=1353","","","Europe/Rome","2"
"402","1354","Fermata 1354 - AVOGADRO","V. DELLA REPUBBLICA N.24","45.13635","7.76473","3","http://www.gtt.to.it/cms/percorari/arrivi?option=com_gtt&view=palina&palina=1354","","","Europe/Rome","2"
"403","1355","Fermata 1355 - GRIBAUDIA","V. SAN MAURO / V. GRIBAUDIA","45.12981","7.76595","3","http://www.gtt.to.it/cms/percorari/arrivi?option=com_gtt&view=palina&palina=1355","","","Europe/Rome","1"
"404","1356","Fermata 1356 - ROSSELLI","V. ROSSELLI FRONTE N.9C","45.13865","7.76773","3","http://www.gtt.to.it/cms/percorari/arrivi?option=com_gtt&view=palina&palina=1356","","","Europe/Rome","2"
"405","1357","Fermata 1357 - ROMA","ROMA - STAZIONE","45.13993","7.77137","3","http://www.gtt.to.it/cms/percorari/arrivi?option=com_gtt&view=palina&palina=1357","","","Europe/Rome","2"
"406","1358","Fermata 1358 - MONTELLO","V. PIAVE PRIMA DI V. MONTELLO","45.13321","7.7687","3","http://www.gtt.to.it/cms/percorari/arrivi?option=com_gtt&view=palina&palina=1358","","","Europe/Rome","1"
"407","1359","Fermata 1359 - GALILEI","V. VERDI N.21","45.14067","7.77281","3","http://www.gtt.to.it/cms/percorari/arrivi?option=com_gtt&view=palina&palina=1359","","","Europe/Rome","1"
"408","136","Fermata 136 - PITAGORA SUD","C. SIRACUSA DOPO P.PITAGORA","45.03875","7.63349","0","http://www.gtt.to.it/cms/percorari/arrivi?option=com_gtt&view=palina&palina=136","","","Europe/Rome","1"
"409","1360","Fermata 1360 - VOLTA","V. DALLA CHIESA DOPO V. VOLTA","45.1336","7.77099","3","http://www.gtt.to.it/cms/percorari/arrivi?option=com_gtt&view=palina&palina=1360","","","Europe/Rome","2"
"410","1361","Fermata 1361 - GRAMSCI","V. VERDI FRONTE V. GRAMSCI","45.14239","7.77556","3","http://www.gtt.to.it/cms/percorari/arrivi?option=com_gtt&view=palina&palina=1361","","","Europe/Rome","2"
"411","1362","Fermata 1362 - PARK STURA CAP","PARK STURA - STAZIONE","45.12011","7.71079","2","http://www.gtt.to.it/cms/percorari/arrivi?option=com_gtt&view=palina&palina=1362","","","Europe/Rome","1"
"412","1363","Fermata 1363 - COMO","V. MILANO DOPO V. COMO","45.14618","7.78307","3","http://www.gtt.to.it/cms/percorari/arrivi?option=com_gtt&view=palina&palina=1363","","","Europe/Rome","1"
"413","1364","Fermata 1364 - PARK STURA CAP","PARK STURA - STAZIONE","45.12018","7.71075","2","http://www.gtt.to.it/cms/percorari/arrivi?option=com_gtt&view=palina&palina=1364","","","Europe/Rome","1"
"414","1365","Fermata 1365 - MARONCELLI CAP","MARONCELLI","45.01808","7.66303","2","http://www.gtt.to.it/cms/percorari/arrivi?option=com_gtt&view=palina&palina=1365","","","Europe/Rome","1"
"415","1366","Fermata 1366 - DI VITTORIO","C. PIEMONTE DOPO V. DI VITTORIO","45.13896","7.75702","3","http://www.gtt.to.it/cms/percorari/arrivi?option=com_gtt&view=palina&palina=1366","","","Europe/Rome","1"
"416","1367","Fermata 1367 - DI VITTORIO","C. PIEMONTE FRONTE N.30","45.13866","7.75658","3","http://www.gtt.to.it/cms/percorari/arrivi?option=com_gtt&view=palina&palina=1367","","","Europe/Rome","1"
"417","1368","Fermata 1368 - MONVISO","C. PIEMONTE / V. LEINI","45.14088","7.75746","3","http://www.gtt.to.it/cms/percorari/arrivi?option=com_gtt&view=palina&palina=1368","","","Europe/Rome","2"
"418","1369","Fermata 1369 - MONVISO","C. PIEMONTE PRIMA DI V. MONVISO","45.1408","7.75713","3","http://www.gtt.to.it/cms/percorari/arrivi?option=com_gtt&view=palina&palina=1369","","","Europe/Rome","1"
"419","137","Fermata 137 - PITAGORA SUD","C. SIRACUSA / P.PITAGORA","45.03891","7.63427","0","http://www.gtt.to.it/cms/percorari/arrivi?option=com_gtt&view=palina&palina=137","","","Europe/Rome","1"
"420","1370","Fermata 1370 - PARK CAIO MARIO","C. UNIONE SOVIETICA / V. PERNATI DI MOMO","45.02812","7.64121","0","http://www.gtt.to.it/cms/percorari/arrivi?option=com_gtt&view=palina&palina=1370","","","Europe/Rome","1"
"421","1371","Fermata 1371 - LEINI","V. FANTINA / V. LEINI","45.14037","7.76165","3","http://www.gtt.to.it/cms/percorari/arrivi?option=com_gtt&view=palina&palina=1371","","","Europe/Rome","1"
"422","1372","Fermata 1372 - PARK CAIO MARIO","C. UNIONE SOVIETICA / V. PERNATI DI MOMO","45.0275","7.6406","0","http://www.gtt.to.it/cms/percorari/arrivi?option=com_gtt&view=palina&palina=1372","","","Europe/Rome","1"
"423","1373","Fermata 1373 - LEVI","V. GALILEO FERRARIS FRONTE V. LEVI","45.1416","7.77932","3","http://www.gtt.to.it/cms/percorari/arrivi?option=com_gtt&view=palina&palina=1373","","","Europe/Rome","1"
"424","1375","Fermata 1375 - FALCHERA CAP","FALCHERA","45.12906","7.70756","2","http://www.gtt.to.it/cms/percorari/arrivi?option=com_gtt&view=palina&palina=1375","","","Europe/Rome","1"
"425","1377","Fermata 1377 - VERCELLI","V. LAURO ROSSI N.24","45.09548","7.69185","0","http://www.gtt.to.it/cms/percorari/arrivi?option=com_gtt&view=palina&palina=1377","","","Europe/Rome","1"
"426","1378","Fermata 1378 - SCIALOJA CAP MUFANT","SCIALOJA  MUFANT","45.10752","7.69004","2","http://www.gtt.to.it/cms/percorari/arrivi?option=com_gtt&view=palina&palina=1378","","","Europe/Rome","1"
"427","1379","Fermata 1379 - ALA DI STURA NORD","V. REISS ROMOLI N.110","45.10936","7.68624","0","http://www.gtt.to.it/cms/percorari/arrivi?option=com_gtt&view=palina&palina=1379","","","Europe/Rome","1"
"428","138","Fermata 138 - DANDOLO","C. SIRACUSA N.198","45.03583","7.63344","0","http://www.gtt.to.it/cms/percorari/arrivi?option=com_gtt&view=palina&palina=138","","","Europe/Rome","1"
"429","1380","Fermata 1380 - ALA DI STURA NORD","V. REISS ROMOLI FRONTE N.108","45.10915","7.6864","0","http://www.gtt.to.it/cms/percorari/arrivi?option=com_gtt&view=palina&palina=1380","","","Europe/Rome","1"
"430","1381","Fermata 1381 - DELLA CELLA","V. REISS ROMOLI N.160","45.11008","7.68037","0","http://www.gtt.to.it/cms/percorari/arrivi?option=com_gtt&view=palina&palina=1381","","","Europe/Rome","1"
"431","1382","Fermata 1382 - DELLA CELLA","V. REISS ROMOLI N.169","45.10989","7.68066","0","http://www.gtt.to.it/cms/percorari/arrivi?option=com_gtt&view=palina&palina=1382","","","Europe/Rome","2"
"432","1383","Fermata 1383 - VERONESE","V. GANDINO / V. VERONESE","45.10715","7.68156","0","http://www.gtt.to.it/cms/percorari/arrivi?option=com_gtt&view=palina&palina=1383","","","Europe/Rome","1"
"433","1384","Fermata 1384 - PREVIATI","V. DELLA CELLA / V. PREVIATI","45.10908","7.67966","0","http://www.gtt.to.it/cms/percorari/arrivi?option=com_gtt&view=palina&palina=1384","","","Europe/Rome","1"
"434","1386","Fermata 1386 - MASSARI","V. DELLA CELLA / V. MASSARI","45.10716","7.67932","0","http://www.gtt.to.it/cms/percorari/arrivi?option=com_gtt&view=palina&palina=1386","","","Europe/Rome","1"
"435","1387","Fermata 1387 - FEA","V. REISS ROMOLI N.200","45.11022","7.67781","0","http://www.gtt.to.it/cms/percorari/arrivi?option=com_gtt&view=palina&palina=1387","","","Europe/Rome","1"
"436","1388","Fermata 1388 - FEA","V. REISS ROMOLI N.200","45.11039","7.67763","0","http://www.gtt.to.it/cms/percorari/arrivi?option=com_gtt&view=palina&palina=1388","","","Europe/Rome","1"
"437","1389","Fermata 1389 - FERMI","V. REISS ROMOLI N.243","45.11077","7.67366","0","http://www.gtt.to.it/cms/percorari/arrivi?option=com_gtt&view=palina&palina=1389","","","Europe/Rome","1"
"438","139","Fermata 139 - DANDOLO","C. SIRACUSA / V. DANDOLO","45.03622","7.63417","0","http://www.gtt.to.it/cms/percorari/arrivi?option=com_gtt&view=palina&palina=139","","","Europe/Rome","1"
"439","1390","Fermata 1390 - FERMI","V. REISS ROMOLI N.248","45.11093","7.67358","0","http://www.gtt.to.it/cms/percorari/arrivi?option=com_gtt&view=palina&palina=1390","","","Europe/Rome","1"
"440","1391","Fermata 1391 - LULLI","V. REISS ROMOLI FRONTE N.288/A","45.11107","7.66831","0","http://www.gtt.to.it/cms/percorari/arrivi?option=com_gtt&view=palina&palina=1391","","","Europe/Rome","2"
"441","1392","Fermata 1392 - LULLI","V. REISS ROMOLI N.288 / A","45.11123","7.66956","0","http://www.gtt.to.it/cms/percorari/arrivi?option=com_gtt&view=palina&palina=1392","","","Europe/Rome","1"
"442","1393","Fermata 1393 - PIRANDELLO","V. TORINO DOPO V. PIRANDELLO","45.13347","7.75923","3","http://www.gtt.to.it/cms/percorari/arrivi?option=com_gtt&view=palina&palina=1393","","","Europe/Rome","1"
"443","1394","Fermata 1394 - GALILEO FERRARIS OVEST","GALILEO FERRARIS OVEST - STADIO E PISCINA OLIMPICA","45.03939","7.65232","0","http://www.gtt.to.it/cms/percorari/arrivi?option=com_gtt&view=palina&palina=1394","","","Europe/Rome","1"
"444","1395","Fermata 1395 - REYCEND","V. MASSARI FRONTE N.230","45.10799","7.67001","0","http://www.gtt.to.it/cms/percorari/arrivi?option=com_gtt&view=palina&palina=1395","","","Europe/Rome","1"
"445","1396","Fermata 1396 - REYCEND","V. MASSARI N.189","45.10787","7.67012","0","http://www.gtt.to.it/cms/percorari/arrivi?option=com_gtt&view=palina&palina=1396","","","Europe/Rome","1"
"446","1397","Fermata 1397 - CASCINA NUOVA","C. PIEMONTE PRIMA DI V. CASCINA NUOVA","45.14882","7.76971","3","http://www.gtt.to.it/cms/percorari/arrivi?option=com_gtt&view=palina&palina=1397","","","Europe/Rome","1"
"447","1398","Fermata 1398 - VANINETTI","V. MASSARI N.155","45.10769","7.67315","0","http://www.gtt.to.it/cms/percorari/arrivi?option=com_gtt&view=palina&palina=1398","","","Europe/Rome","1"
"448","1399","Fermata 1399 - MOGLIA","C. PIEMONTE PRIMA DI V. MOGLIA","45.14834","7.77574","3","http://www.gtt.to.it/cms/percorari/arrivi?option=com_gtt&view=palina&palina=1399","","","Europe/Rome","1"
"449","140","Fermata 140 - TAZZOLI","C. SIRACUSA / C. TAZZOLI","45.03333","7.6339","0","http://www.gtt.to.it/cms/percorari/arrivi?option=com_gtt&view=palina&palina=140","","","Europe/Rome","1"
"450","1400","Fermata 1400 - FEA","V. MASSARI N.107","45.10695","7.67725","0","http://www.gtt.to.it/cms/percorari/arrivi?option=com_gtt&view=palina&palina=1400","","","Europe/Rome","1"
"451","1401","Fermata 1401 - DEL NOBILE N.27","STR. DEL NOBILE 27","45.05338","7.70997","0","http://www.gtt.to.it/cms/percorari/arrivi?option=com_gtt&view=palina&palina=1401","","","Europe/Rome","2"
"452","1402","Fermata 1402 - BREGLIO","V. BIBIANA / V. BREGLIO","45.09922","7.67812","0","http://www.gtt.to.it/cms/percorari/arrivi?option=com_gtt&view=palina&palina=1402","","","Europe/Rome","1"
"453","1403","Fermata 1403 - DEL NOBILE N.55","STR. DEL NOBILE N.55","45.05208","7.71344","0","http://www.gtt.to.it/cms/percorari/arrivi?option=com_gtt&view=palina&palina=1403","","","Europe/Rome","1"
"454","14039","Fermata 14039 - SAN FRANCESCO","Via San Massimo, 67","45.02386","7.52612","3","http://www.gtt.to.it/cms/percorari/arrivi?option=com_gtt&view=palina&palina=14039","","","Europe/Rome","2"
"455","1404","Fermata 1404 - SOSPELLO","V. BIBIANA / V. SOSPELLO","45.10228","7.67857","0","http://www.gtt.to.it/cms/percorari/arrivi?option=com_gtt&view=palina&palina=1404","","","Europe/Rome","1"
"456","1405","Fermata 1405 - CRIMEA","C. G.LANZA / V. CRIMEA","45.05568","7.69683","0","http://www.gtt.to.it/cms/percorari/arrivi?option=com_gtt&view=palina&palina=1405","","","Europe/Rome","1"
"458","1407","Fermata 1407 - SAN VINCENZO OVEST","STR. DEL NOBILE DOPO STR. SAN VINCENZO","45.04832","7.71835","0","http://www.gtt.to.it/cms/percorari/arrivi?option=com_gtt&view=palina&palina=1407","","","Europe/Rome","2"
"459","1408","Fermata 1408 - SAORGIO","V. BIBIANA / V. SAORGIO","45.09665","7.67605","0","http://www.gtt.to.it/cms/percorari/arrivi?option=com_gtt&view=palina&palina=1408","","","Europe/Rome","1"
"460","1409","Fermata 1409 - SAN VINCENZO OVEST","STR. DEL NOBILE / STR. SAN VINCENZO","45.04815","7.71815","0","http://www.gtt.to.it/cms/percorari/arrivi?option=com_gtt&view=palina&palina=1409","","","Europe/Rome","1"
"461","141","Fermata 141 - TAZZOLI","C. SIRACUSA DOPO C. TAZZOLI","45.03317","7.63413","0","http://www.gtt.to.it/cms/percorari/arrivi?option=com_gtt&view=palina&palina=141","","","Europe/Rome","1"
"462","1410","Fermata 1410 - VIBÒ","VIBO'","45.09526","7.67475","0","http://www.gtt.to.it/cms/percorari/arrivi?option=com_gtt&view=palina&palina=1410","","","Europe/Rome","1"
"463","1411","Fermata 1411 - XVIII DICEMBRE","XVIII DICEMBRE - M1 - PORTA SUSA","45.07425","7.66863","0","http://www.gtt.to.it/cms/percorari/arrivi?option=com_gtt&view=palina&palina=1411","","","Europe/Rome","1"
"464","1412","Fermata 1412 - BOSTON","C. SIRACUSA / V. BOSTON","45.04325","7.63399","0","http://www.gtt.to.it/cms/percorari/arrivi?option=com_gtt&view=palina&palina=1412","","","Europe/Rome","1"
"465","1413","Fermata 1413 - PINEROLO","V. PINEROLO N.61/B CANDIOLO","44.9568","7.59382","3","http://www.gtt.to.it/cms/percorari/arrivi?option=com_gtt&view=palina&palina=1413","","","Europe/Rome","1"
"466","1414","Fermata 1414 - BOSTON","C. SIRACUSA DOPO V. BOSTON","45.04323","7.63423","0","http://www.gtt.to.it/cms/percorari/arrivi?option=com_gtt&view=palina&palina=1414","","","Europe/Rome","1"
"467","1415","Fermata 1415 - VITTORIO EMANUELE II CAP","VITTORIO EMANUELE II - PORTA NUOVA M1","45.0621","7.68123","2","http://www.gtt.to.it/cms/percorari/arrivi?option=com_gtt&view=palina&palina=1415","","","Europe/Rome","1"
"468","1416","Fermata 1416 - SAN MAURIZIO CAP","SAN MAURIZIO","45.06611","7.69826","2","http://www.gtt.to.it/cms/percorari/arrivi?option=com_gtt&view=palina&palina=1416","","","Europe/Rome","1"
"469","1417","Fermata 1417 - GRAN MADRE","P. GRAN MADRE DI DIO","45.0618","7.69947","0","http://www.gtt.to.it/cms/percorari/arrivi?option=com_gtt&view=palina&palina=1417","","","Europe/Rome","1"
"470","1418","Fermata 1418 - GRAN MADRE","V. VILLA DELLA REGINA N.1","45.0621","7.70037","0","http://www.gtt.to.it/cms/percorari/arrivi?option=com_gtt&view=palina&palina=1418","","","Europe/Rome","1"
"471","1419","Fermata 1419 - BIAMONTI","V. VILLA DELLA REGINA N.12","45.06096","7.70232","0","http://www.gtt.to.it/cms/percorari/arrivi?option=com_gtt&view=palina&palina=1419","","","Europe/Rome","1"
"472","142","Fermata 142 - TAZZOLI C.2","C. TAZZOLI C.2","45.03191","7.63527","0","http://www.gtt.to.it/cms/percorari/arrivi?option=com_gtt&view=palina&palina=142","","","Europe/Rome","1"
"473","1420","Fermata 1420 - BIAMONTI","V. VILLA DELLA REGINA N.13","45.0613","7.70206","0","http://www.gtt.to.it/cms/percorari/arrivi?option=com_gtt&view=palina&palina=1420","","","Europe/Rome","1"
"474","1421","Fermata 1421 - VILLA DELLA REGINA","V. VILLA DELLA REGINA / C.QUINTINO SELLA","45.05975","7.7049","0","http://www.gtt.to.it/cms/percorari/arrivi?option=com_gtt&view=palina&palina=1421","","","Europe/Rome","1"
"475","1422","Fermata 1422 - VILLA DELLA REGINA","V. VILLA DELLA REGINA N.21","45.06021","7.70415","0","http://www.gtt.to.it/cms/percorari/arrivi?option=com_gtt&view=palina&palina=1422","","","Europe/Rome","1"
"476","1423","Fermata 1423 - CAPPUCCINI","C. G.LANZA N.42/A","45.05894","7.69855","0","http://www.gtt.to.it/cms/percorari/arrivi?option=com_gtt&view=palina&palina=1423","","","Europe/Rome","1"
"477","1424","Fermata 1424 - CAPPUCCINI","C. G.LANZA FRONTE N.42/A","45.05881","7.69881","0","http://www.gtt.to.it/cms/percorari/arrivi?option=com_gtt&view=palina&palina=1424","","","Europe/Rome","1"
"478","1425","Fermata 1425 - LANZA","V. CRIMEA / C. G.LANZA","45.0556","7.6962","0","http://www.gtt.to.it/cms/percorari/arrivi?option=com_gtt&view=palina&palina=1425","","","Europe/Rome","1"
"479","1426","Fermata 1426 - LANZA","V.LE THOVEZ / C. G.LANZA","45.05496","7.69762","0","http://www.gtt.to.it/cms/percorari/arrivi?option=com_gtt&view=palina&palina=1426","","","Europe/Rome","2"
"480","1427","Fermata 1427 - RIGHINO","V.LE THOVEZ / STR. DEL RIGHINO","45.0541","7.69886","0","http://www.gtt.to.it/cms/percorari/arrivi?option=com_gtt&view=palina&palina=1427","","","Europe/Rome","1"
"482","1429","Fermata 1429 - LICEO VALSALICE","V.LE THOVEZ N.40","45.05378","7.70178","0","http://www.gtt.to.it/cms/percorari/arrivi?option=com_gtt&view=palina&palina=1429","","","Europe/Rome","1"
"483","143","Fermata 143 - TAZZOLI C.2","C. TAZZOLI / V. SAN REMO","45.03202","7.63593","0","http://www.gtt.to.it/cms/percorari/arrivi?option=com_gtt&view=palina&palina=143","","","Europe/Rome","1"
"484","1430","Fermata 1430 - LICEO VALSALICE","V.LE THOVEZ N.37 A","45.0539","7.70162","0","http://www.gtt.to.it/cms/percorari/arrivi?option=com_gtt&view=palina&palina=1430","","","Europe/Rome","1"
"485","1431","Fermata 1431 - MOROZZO","V.LE THOVEZ / STR. DEL MOROZZO","45.05343","7.70511","0","http://www.gtt.to.it/cms/percorari/arrivi?option=com_gtt&view=palina&palina=1431","","","Europe/Rome","1"
"486","1432","Fermata 1432 - DEL NOBILE N.27","STR. DEL NOBILE FRONTE N.27","45.05323","7.70996","0","http://www.gtt.to.it/cms/percorari/arrivi?option=com_gtt&view=palina&palina=1432","","","Europe/Rome","1"
"487","1433","Fermata 1433 - DEL NOBILE N.55","STR. DEL NOBILE FRONTE N.55","45.0519","7.71333","0","http://www.gtt.to.it/cms/percorari/arrivi?option=com_gtt&view=palina&palina=1433","","","Europe/Rome","1"
"488","1434","Fermata 1434 - DEL NOBILE N.87","STR. DEL NOBILE N.87","45.04959","7.71626","0","http://www.gtt.to.it/cms/percorari/arrivi?option=com_gtt&view=palina&palina=1434","","","Europe/Rome","1"
"489","1435","Fermata 1435 - MARONCELLI","V. GALILEO FERRARIS FRONTE N.22/A","45.13864","7.77737","3","http://www.gtt.to.it/cms/percorari/arrivi?option=com_gtt&view=palina&palina=1435","","","Europe/Rome","1"
"490","1436","Fermata 1436 - SAN VINCENZO CAP","SAN VINCENZO","45.04728","7.71559","2","http://www.gtt.to.it/cms/percorari/arrivi?option=com_gtt&view=palina&palina=1436","","","Europe/Rome","2"
"491","1437","Fermata 1437 - TADINI EST","STR. SAN VINCENZO FRONTE N.26","45.04744","7.71391","0","http://www.gtt.to.it/cms/percorari/arrivi?option=com_gtt&view=palina&palina=1437","","","Europe/Rome","2"
"492","1438","Fermata 1438 - VAL SALICE","STR. SAN VINCENZO / STR. VAL SALICE","45.04757","7.71136","0","http://www.gtt.to.it/cms/percorari/arrivi?option=com_gtt&view=palina&palina=1438","","","Europe/Rome","2"
"493","14384","Fermata 14384 - CASELLE (STR. TORINO 9)","Via Torino, 9","45.1693","7.65205","3","http://www.gtt.to.it/cms/percorari/arrivi?option=com_gtt&view=palina&palina=14384","","","Europe/Rome","2"
"494","1439","Fermata 1439 - VAL SALICE N.57","STR. VAL SALICE N.57","45.04804","7.70883","0","http://www.gtt.to.it/cms/percorari/arrivi?option=com_gtt&view=palina&palina=1439","","","Europe/Rome","2"
"495","144","Fermata 144 - D'ARBOREA","C. TAZZOLI FRONTE V. D'ARBOREA","45.0313","7.63709","0","http://www.gtt.to.it/cms/percorari/arrivi?option=com_gtt&view=palina&palina=144","","","Europe/Rome","1"
"496","1440","Fermata 1440 - TADINI","STR. VAL SALICE N.34 F","45.05049","7.7066","0","http://www.gtt.to.it/cms/percorari/arrivi?option=com_gtt&view=palina&palina=1440","","","Europe/Rome","2"
"497","1441","Fermata 1441 - ADUA","STR. VAL SALICE / P.ADUA","45.05287","7.7062","0","http://www.gtt.to.it/cms/percorari/arrivi?option=com_gtt&view=palina&palina=1441","","","Europe/Rome","2"
"498","1442","Fermata 1442 - GABETTI CAP","GABETTI","45.06516","7.7105","2","http://www.gtt.to.it/cms/percorari/arrivi?option=com_gtt&view=palina&palina=1442","","","Europe/Rome","1"
"499","1443","Fermata 1443 - MONCALVO","C. GABETTI DOPO V. MONCALVO","45.06492","7.71079","0","http://www.gtt.to.it/cms/percorari/arrivi?option=com_gtt&view=palina&palina=1443","","","Europe/Rome","1"
"500","1444","Fermata 1444 - GOZZANO","C. GABETTI / P.GOZZANO","45.06487","7.71131","0","http://www.gtt.to.it/cms/percorari/arrivi?option=com_gtt&view=palina&palina=1444","","","Europe/Rome","1"
"501","1445","Fermata 1445 - PONTE TROMBETTA","STR. VAL SAN MARTINO N.6","45.06399","7.71292","0","http://www.gtt.to.it/cms/percorari/arrivi?option=com_gtt&view=palina&palina=1445","","","Europe/Rome","1"
"502","1446","Fermata 1446 - PONTE TROMBETTA","STR. VAL SAN MARTINO N.3","45.06406","7.71248","0","http://www.gtt.to.it/cms/percorari/arrivi?option=com_gtt&view=palina&palina=1446","","","Europe/Rome","1"
"503","1447","Fermata 1447 - SAN MARTINO SUPERIORE","STR. VAL SAN MARTINO 26 / A","45.06233","7.71546","0","http://www.gtt.to.it/cms/percorari/arrivi?option=com_gtt&view=palina&palina=1447","","","Europe/Rome","2"
"504","1448","Fermata 1448 - SAN MARTINO SUPERIORE","STR. VAL SAN MARTINO N.39","45.06235","7.7157","0","http://www.gtt.to.it/cms/percorari/arrivi?option=com_gtt&view=palina&palina=1448","","","Europe/Rome","2"
"505","1449","Fermata 1449 - SAN MARTINO N.66","STR. VAL SAN MARTINO N.66","45.06057","7.71623","0","http://www.gtt.to.it/cms/percorari/arrivi?option=com_gtt&view=palina&palina=1449","","","Europe/Rome","2"
"506","145","Fermata 145 - D'ARBOREA","C. TAZZOLI / V. D'ARBOREA","45.03127","7.63818","0","http://www.gtt.to.it/cms/percorari/arrivi?option=com_gtt&view=palina&palina=145","","","Europe/Rome","1"
"507","1450","Fermata 1450 - SAN MARTINO N.66","STR. VAL SAN MARTINO N.67","45.06071","7.71629","0","http://www.gtt.to.it/cms/percorari/arrivi?option=com_gtt&view=palina&palina=1450","","","Europe/Rome","2"
"508","1451","Fermata 1451 - SAN MARTINO N.82","STR. VAL SAN MARTINO N.82","45.05867","7.71903","0","http://www.gtt.to.it/cms/percorari/arrivi?option=com_gtt&view=palina&palina=1451","","","Europe/Rome","2"
"509","1452","Fermata 1452 - SAN MARTINO N.82","STR. VAL SAN MARTINO N.81","45.05882","7.7191","0","http://www.gtt.to.it/cms/percorari/arrivi?option=com_gtt&view=palina&palina=1452","","","Europe/Rome","2"
"510","1453","Fermata 1453 - SANT'ANNA","STR. VAL SAN MARTINO N.98","45.05715","7.72049","0","http://www.gtt.to.it/cms/percorari/arrivi?option=com_gtt&view=palina&palina=1453","","","Europe/Rome","2"
"511","1454","Fermata 1454 - SANT'ANNA","STR. VAL SAN MARTINO FRONTE N.98","45.05733","7.72047","0","http://www.gtt.to.it/cms/percorari/arrivi?option=com_gtt&view=palina&palina=1454","","","Europe/Rome","2"
"512","14549","Fermata 14549 - CASELLE (OSPEDALE)","Via Circonvallazione, 132","45.17446","7.64898","3","http://www.gtt.to.it/cms/percorari/arrivi?option=com_gtt&view=palina&palina=14549","","","Europe/Rome","2"
"513","1455","Fermata 1455 - SANT'ANNA N.9","STR. SANT'ANNA FRONTE N.9","45.05802","7.72181","0","http://www.gtt.to.it/cms/percorari/arrivi?option=com_gtt&view=palina&palina=1455","","","Europe/Rome","2"
"514","1456","Fermata 1456 - SANT'ANNA N.9","STR. SANT'ANNA N.9","45.05822","7.72153","0","http://www.gtt.to.it/cms/percorari/arrivi?option=com_gtt&view=palina&palina=1456","","","Europe/Rome","2"
"515","1457","Fermata 1457 - SANT'ANNA N.52","STR. SANT'ANNA N.52","45.05583","7.72447","0","http://www.gtt.to.it/cms/percorari/arrivi?option=com_gtt&view=palina&palina=1457","","","Europe/Rome","2"
"516","1458","Fermata 1458 - SANT'ANNA N.45","STR. SANT'ANNA N.45","45.056","7.72453","0","http://www.gtt.to.it/cms/percorari/arrivi?option=com_gtt&view=palina&palina=1458","","","Europe/Rome","2"
